{"type":"FeatureCollection","features":[{"type":"Feature","geometry":{"type":"Point","coordinates":[-73.99580304,40.67660131]},"properties":{"address":"        5 STREET","borough":"Brooklyn","bbl":"3004710001","zipcode":"11231","agency":"Department of Citywide Administrative Services","agencyshort":"DCAS","sqft":"183663","acres":"4.216322","vacant":"TRUE"}},{"type":"Feature","geometry":{"type":"Point","coordinates":[-73.999723,40.66797701]},"properties":{"address":"        19 STREET","borough":"Brooklyn","bbl":"3006250250","zipcode":"0","agency":"Department of Citywide Administrative Services","agencyshort":"DCAS","sqft":"79040","acres":"1.814509","vacant":"TRUE"}},{"type":"Feature","geometry":{"type":"Point","coordinates":[-74.00430249,40.66150603]},"properties":{"address":"        2 AVENUE","borough":"Brooklyn","bbl":"3006620200","zipcode":"11232","agency":"Department of Citywide Administrative Services","agencyshort":"DCAS","sqft":"19200","acres":"0.440771","vacant":"TRUE"}},{"type":"Feature","geometry":{"type":"Point","coordinates":[-73.99837128,40.59014996]},"properties":{"address":"        SHORE PARKWAY","borough":"Brooklyn","bbl":"3064910412","zipcode":"11214","agency":"Department of Citywide Administrative Services","agencyshort":"DCAS","sqft":"158637","acres":"3.641804","vacant":"TRUE"}},{"type":"Feature","geometry":{"type":"Point","coordinates":[-73.98292691,40.57384468]},"properties":{"address":"1525 BOARDWALK WEST","borough":"Brooklyn","bbl":"3070740020","zipcode":"11224","agency":"Department of Citywide Administrative Services","agencyshort":"DCAS","sqft":"25000","acres":"0.573921","vacant":"TRUE"}},{"type":"Feature","geometry":{"type":"Point","coordinates":[-73.92063484,40.67405008]},"properties":{"address":"1814 BERGEN STREET","borough":"Brooklyn","bbl":"3014510012","zipcode":"11233","agency":"Department of Citywide Administrative Services","agencyshort":"DCAS","sqft":"93933","acres":"2.156405","vacant":"TRUE"}},{"type":"Feature","geometry":{"type":"Point","coordinates":[-73.85623069,40.66396918]},"properties":{"address":"110 WORTMAN AVENUE","borough":"Brooklyn","bbl":"3045580110","zipcode":"11207","agency":"Department of Citywide Administrative Services","agencyshort":"DCAS","sqft":"17960","acres":"0.412305","vacant":"TRUE"}},{"type":"Feature","geometry":{"type":"Point","coordinates":[-73.8581186,40.66413979]},"properties":{"address":"        EMERALD STREET","borough":"Brooklyn","bbl":"3045570022","zipcode":"11208","agency":"Department of Citywide Administrative Services","agencyshort":"DCAS","sqft":"71500","acres":"1.641414","vacant":"TRUE"}},{"type":"Feature","geometry":{"type":"Point","coordinates":[-73.8573495,40.66499437]},"properties":{"address":"        WORTMAN AVENUE","borough":"Brooklyn","bbl":"3045580001","zipcode":"11208","agency":"Department of Citywide Administrative Services","agencyshort":"DCAS","sqft":"49380","acres":"1.133609","vacant":"TRUE"}},{"type":"Feature","geometry":{"type":"Point","coordinates":[-73.85714286,40.66386052]},"properties":{"address":"        COZINE AVENUE","borough":"Brooklyn","bbl":"3045580046","zipcode":"11208","agency":"Department of Citywide Administrative Services","agencyshort":"DCAS","sqft":"42380","acres":"0.972911","vacant":"TRUE"}},{"type":"Feature","geometry":{"type":"Point","coordinates":[-73.85724258,40.66438857]},"properties":{"address":"        EMERALD STREET","borough":"Brooklyn","bbl":"3045580048","zipcode":"0","agency":"Department of Citywide Administrative Services","agencyshort":"DCAS","sqft":"62348","acres":"1.431313","vacant":"TRUE"}},{"type":"Feature","geometry":{"type":"Point","coordinates":[-73.93211734,40.64530585]},"properties":{"address":"        SCHENECTADY AVENUE","borough":"Brooklyn","bbl":"3047580054","zipcode":"11203","agency":"Department of Citywide Administrative Services","agencyshort":"DCAS","sqft":"10119","acres":"0.2323","vacant":"TRUE"}},{"type":"Feature","geometry":{"type":"Point","coordinates":[-73.87804892,40.65539252]},"properties":{"address":"        FLATLANDS AVENUE","borough":"Brooklyn","bbl":"3044440001","zipcode":"0","agency":"Department of Citywide Administrative Services","agencyshort":"DCAS","sqft":"93000","acres":"2.134986","vacant":"TRUE"}},{"type":"Feature","geometry":{"type":"Point","coordinates":[-73.85824932,40.66467849]},"properties":{"address":"        WORTMAN AVENUE","borough":"Brooklyn","bbl":"3045570001","zipcode":"11208","agency":"Department of Citywide Administrative Services","agencyshort":"DCAS","sqft":"49515","acres":"1.136708","vacant":"TRUE"}},{"type":"Feature","geometry":{"type":"Point","coordinates":[-73.85632239,40.6648313]},"properties":{"address":"        WORTMAN AVENUE","borough":"Brooklyn","bbl":"3045580081","zipcode":"0","agency":"Department of Citywide Administrative Services","agencyshort":"DCAS","sqft":"33716","acres":"0.774013","vacant":"TRUE"}},{"type":"Feature","geometry":{"type":"Point","coordinates":[-73.88192994,40.6665099]},"properties":{"address":"        NEW LOTS AVENUE","borough":"Brooklyn","bbl":"3043130006","zipcode":"11208","agency":"Department of Citywide Administrative Services","agencyshort":"DCAS","sqft":"10860","acres":"0.249311","vacant":"TRUE"}},{"type":"Feature","geometry":{"type":"Point","coordinates":[-73.86687054,40.65544898]},"properties":{"address":"        MEADOW STREET","borough":"Brooklyn","bbl":"3045860001","zipcode":"11239","agency":"Department of Citywide Administrative Services","agencyshort":"DCAS","sqft":"1845923","acres":"42.376561","vacant":"TRUE"}},{"type":"Feature","geometry":{"type":"Point","coordinates":[-73.85664033,40.6649324]},"properties":{"address":"        WORTMAN AVENUE","borough":"Brooklyn","bbl":"3045580071","zipcode":"0","agency":"Department of Citywide Administrative Services","agencyshort":"DCAS","sqft":"33380","acres":"0.766299","vacant":"TRUE"}},{"type":"Feature","geometry":{"type":"Point","coordinates":[-73.90950433,40.62585416]},"properties":{"address":"        ROYCE STREET","borough":"Brooklyn","bbl":"3083730030","zipcode":"11234","agency":"Department of Citywide Administrative Services","agencyshort":"DCAS","sqft":"27100","acres":"0.62213","vacant":"TRUE"}},{"type":"Feature","geometry":{"type":"Point","coordinates":[-73.97117611,40.60776878]},"properties":{"address":"        EAST 3 STREET","borough":"Brooklyn","bbl":"3066340033","zipcode":"11223","agency":"Department of Citywide Administrative Services","agencyshort":"DCAS","sqft":"13800","acres":"0.316804","vacant":"TRUE"}},{"type":"Feature","geometry":{"type":"Point","coordinates":[-73.90248828,40.63866686]},"properties":{"address":"        EAST 91 STREET","borough":"Brooklyn","bbl":"3082180026","zipcode":"11236","agency":"Department of Citywide Administrative Services","agencyshort":"DCAS","sqft":"18782","acres":"0.431175","vacant":"TRUE"}},{"type":"Feature","geometry":{"type":"Point","coordinates":[-73.90785352,40.62367594]},"properties":{"address":"        ROYCE STREET","borough":"Brooklyn","bbl":"3083740201","zipcode":"11234","agency":"Department of Citywide Administrative Services","agencyshort":"DCAS","sqft":"13000","acres":"0.298439","vacant":"TRUE"}},{"type":"Feature","geometry":{"type":"Point","coordinates":[-73.90700357,40.62464843]},"properties":{"address":"        BERGEN AVENUE","borough":"Brooklyn","bbl":"3083740028","zipcode":"11234","agency":"Department of Citywide Administrative Services","agencyshort":"DCAS","sqft":"19445","acres":"0.446396","vacant":"TRUE"}},{"type":"Feature","geometry":{"type":"Point","coordinates":[-73.94324531,40.58979021]},"properties":{"address":"        EAST 27 STREET","borough":"Brooklyn","bbl":"3074420001","zipcode":"11235","agency":"Department of Citywide Administrative Services","agencyshort":"DCAS","sqft":"22442","acres":"0.515197","vacant":"TRUE"}},{"type":"Feature","geometry":{"type":"Point","coordinates":[-73.93666388,40.6195861]},"properties":{"address":"        KIMBALL STREET","borough":"Brooklyn","bbl":"3078590115","zipcode":"11234","agency":"Department of Citywide Administrative Services","agencyshort":"DCAS","sqft":"11356","acres":"0.260698","vacant":"TRUE"}},{"type":"Feature","geometry":{"type":"Point","coordinates":[-73.9247848,40.58585623]},"properties":{"address":"        POST COURT","borough":"Brooklyn","bbl":"3088565535","zipcode":"11229","agency":"Department of Citywide Administrative Services","agencyshort":"DCAS","sqft":"55700","acres":"1.278696","vacant":"TRUE"}},{"type":"Feature","geometry":{"type":"Point","coordinates":[-73.91574108,40.86414182]},"properties":{"address":"W208 ST","borough":"Manhattan","bbl":"1021890050","zipcode":"10034","agency":"Department of Citywide Administrative Services","agencyshort":"DCAS","sqft":"68257","acres":"1.566965","vacant":"TRUE"}},{"type":"Feature","geometry":{"type":"Point","coordinates":[-73.93234944,40.80947992]},"properties":{"address":"0 THIRD AVENUE","borough":"Bronx","bbl":"2023190200","zipcode":"10451","agency":"Department of Citywide Administrative Services","agencyshort":"DCAS","sqft":"85900","acres":"1.971993","vacant":"TRUE"}},{"type":"Feature","geometry":{"type":"Point","coordinates":[-73.92420804,40.84989516]},"properties":{"address":"HARLEM RIVER WASHINGT","borough":"Bronx","bbl":"2028840072","zipcode":"","agency":"Department of Citywide Administrative Services","agencyshort":"DCAS","sqft":"92487","acres":"2.123209","vacant":"TRUE"}},{"type":"Feature","geometry":{"type":"Point","coordinates":[-73.85007816,40.80814338]},"properties":{"address":"CORNELL AVENUE","borough":"Bronx","bbl":"2034480001","zipcode":"10473","agency":"Department of Citywide Administrative Services","agencyshort":"DCAS","sqft":"150538","acres":"3.455877","vacant":"TRUE"}},{"type":"Feature","geometry":{"type":"Point","coordinates":[-73.83488338,40.88391273]},"properties":{"address":"EDEN TERRACE","borough":"Bronx","bbl":"2049220087","zipcode":"10466","agency":"Department of Citywide Administrative Services","agencyshort":"DCAS","sqft":"10748","acres":"0.24674","vacant":"TRUE"}},{"type":"Feature","geometry":{"type":"Point","coordinates":[-73.78533948,40.83801409]},"properties":{"address":"ROCHELLE ST","borough":"Bronx","bbl":"2056240135","zipcode":"10464","agency":"Department of Citywide Administrative Services","agencyshort":"DCAS","sqft":"116646","acres":"2.677824","vacant":"TRUE"}},{"type":"Feature","geometry":{"type":"Point","coordinates":[-73.78613123,40.85204238]},"properties":{"address":"KING AVENUE","borough":"Bronx","bbl":"2056460125","zipcode":"10464","agency":"Department of Citywide Administrative Services","agencyshort":"DCAS","sqft":"133500","acres":"3.064738","vacant":"TRUE"}},{"type":"Feature","geometry":{"type":"Point","coordinates":[-73.91412292,40.9044276]},"properties":{"address":"0 PALISADE AVENUE","borough":"Bronx","bbl":"2059330149","zipcode":"10471","agency":"Department of Citywide Administrative Services","agencyshort":"DCAS","sqft":"38564","acres":"0.885308","vacant":"TRUE"}},{"type":"Feature","geometry":{"type":"Point","coordinates":[-73.92164658,40.8213636]},"properties":{"address":"CONCOURSE VILLAGE EAST","borough":"Bronx","bbl":"2024430200","zipcode":"10451","agency":"Department of Citywide Administrative Services","agencyshort":"DCAS","sqft":"19900","acres":"0.456841","vacant":"TRUE"}},{"type":"Feature","geometry":{"type":"Point","coordinates":[-73.82001212,40.61183931]},"properties":{"address":"CROSS BAY BLVD","borough":"Queens","bbl":"4153060011","zipcode":"11693","agency":"Department of Citywide Administrative Services","agencyshort":"DCAS","sqft":"13636","acres":"0.313039","vacant":"TRUE"}},{"type":"Feature","geometry":{"type":"Point","coordinates":[-73.822174,40.60230363]},"properties":{"address":"10 16 ROAD","borough":"Queens","bbl":"4153200330","zipcode":"11693","agency":"Department of Citywide Administrative Services","agencyshort":"DCAS","sqft":"76000","acres":"1.74472","vacant":"TRUE"}},{"type":"Feature","geometry":{"type":"Point","coordinates":[-73.8183947,40.61080668]},"properties":{"address":"514-20 CROSS BAY BOULEVARD","borough":"Queens","bbl":"4154000059","zipcode":"11693","agency":"Department of Citywide Administrative Services","agencyshort":"DCAS","sqft":"23800","acres":"0.546373","vacant":"TRUE"}},{"type":"Feature","geometry":{"type":"Point","coordinates":[-73.81854013,40.60479323]},"properties":{"address":"CHANNEL ROAD","borough":"Queens","bbl":"4154760001","zipcode":"11693","agency":"Department of Citywide Administrative Services","agencyshort":"DCAS","sqft":"54635","acres":"1.254247","vacant":"TRUE"}},{"type":"Feature","geometry":{"type":"Point","coordinates":[-73.81895271,40.60209576]},"properties":{"address":"100TH PLACE","borough":"Queens","bbl":"4154800950","zipcode":"11693","agency":"Department of Citywide Administrative Services","agencyshort":"DCAS","sqft":"72000","acres":"1.652893","vacant":"TRUE"}},{"type":"Feature","geometry":{"type":"Point","coordinates":[-73.79117008,40.59704876]},"properties":{"address":"BEACH 63 STREET","borough":"Queens","bbl":"4160070055","zipcode":"11692","agency":"Department of Citywide Administrative Services","agencyshort":"DCAS","sqft":"19785","acres":"0.454201","vacant":"TRUE"}},{"type":"Feature","geometry":{"type":"Point","coordinates":[-73.81557766,40.58992603]},"properties":{"address":"BEACH CHANNEL D","borough":"Queens","bbl":"4161090200","zipcode":"11693","agency":"Department of Citywide Administrative Services","agencyshort":"DCAS","sqft":"106784","acres":"2.451423","vacant":"TRUE"}},{"type":"Feature","geometry":{"type":"Point","coordinates":[-73.86080372,40.72486405]},"properties":{"address":"64 ROAD","borough":"Queens","bbl":"4031040130","zipcode":"11374","agency":"Department of Citywide Administrative Services","agencyshort":"DCAS","sqft":"405648","acres":"9.312397","vacant":"TRUE"}},{"type":"Feature","geometry":{"type":"Point","coordinates":[-73.89046623,40.70898466]},"properties":{"address":"METROPOLITAN AV","borough":"Queens","bbl":"4036670100","zipcode":"","agency":"Department of Citywide Administrative Services","agencyshort":"DCAS","sqft":"13952","acres":"0.320294","vacant":"TRUE"}},{"type":"Feature","geometry":{"type":"Point","coordinates":[-73.85724937,40.71019401]},"properties":{"address":"73 AVENUE","borough":"Queens","bbl":"4038860695","zipcode":"","agency":"Department of Citywide Administrative Services","agencyshort":"DCAS","sqft":"13440","acres":"0.30854","vacant":"TRUE"}},{"type":"Feature","geometry":{"type":"Point","coordinates":[-73.84711817,40.79414877]},"properties":{"address":"0","borough":"Queens","bbl":"4039160026","zipcode":"11356","agency":"Department of Citywide Administrative Services","agencyshort":"DCAS","sqft":"11000","acres":"0.252525","vacant":"TRUE"}},{"type":"Feature","geometry":{"type":"Point","coordinates":[-73.84734685,40.79478042]},"properties":{"address":"0","borough":"Queens","bbl":"4039160027","zipcode":"11356","agency":"Department of Citywide Administrative Services","agencyshort":"DCAS","sqft":"10377","acres":"0.238223","vacant":"TRUE"}},{"type":"Feature","geometry":{"type":"Point","coordinates":[-73.84569237,40.79335587]},"properties":{"address":"0","borough":"Queens","bbl":"4039160035","zipcode":"11356","agency":"Department of Citywide Administrative Services","agencyshort":"DCAS","sqft":"15000","acres":"0.344353","vacant":"TRUE"}},{"type":"Feature","geometry":{"type":"Point","coordinates":[-73.84906312,40.77517376]},"properties":{"address":"119 STREET","borough":"Queens","bbl":"4042550001","zipcode":"","agency":"Department of Citywide Administrative Services","agencyshort":"DCAS","sqft":"60000","acres":"1.37741","vacant":"TRUE"}},{"type":"Feature","geometry":{"type":"Point","coordinates":[-73.84900154,40.7738749]},"properties":{"address":"119 STREET","borough":"Queens","bbl":"4042900001","zipcode":"","agency":"Department of Citywide Administrative Services","agencyshort":"DCAS","sqft":"95000","acres":"2.1809","vacant":"TRUE"}},{"type":"Feature","geometry":{"type":"Point","coordinates":[-73.73322603,40.73057532]},"properties":{"address":"88 AVENUE","borough":"Queens","bbl":"4079540139","zipcode":"11427","agency":"Department of Citywide Administrative Services","agencyshort":"DCAS","sqft":"10422","acres":"0.239256","vacant":"TRUE"}},{"type":"Feature","geometry":{"type":"Point","coordinates":[-73.80719388,40.68995979]},"properties":{"address":"106-13 142 STREET","borough":"Queens","bbl":"4100400053","zipcode":"11435","agency":"Department of Citywide Administrative Services","agencyshort":"DCAS","sqft":"14338","acres":"0.329155","vacant":"TRUE"}},{"type":"Feature","geometry":{"type":"Point","coordinates":[-73.83490046,40.66928828]},"properties":{"address":"HAWTREE AVENUE","borough":"Queens","bbl":"4115620159","zipcode":"11417","agency":"Department of Citywide Administrative Services","agencyshort":"DCAS","sqft":"22500","acres":"0.516529","vacant":"TRUE"}},{"type":"Feature","geometry":{"type":"Point","coordinates":[-73.81871498,40.66522225]},"properties":{"address":"SUNRISE HIGHWAY","borough":"Queens","bbl":"4118480050","zipcode":"","agency":"Department of Citywide Administrative Services","agencyshort":"DCAS","sqft":"27400","acres":"0.629017","vacant":"TRUE"}},{"type":"Feature","geometry":{"type":"Point","coordinates":[-73.82982876,40.65917242]},"properties":{"address":"0 159 AVENUE","borough":"Queens","bbl":"4141820018","zipcode":"11414","agency":"Department of Citywide Administrative Services","agencyshort":"DCAS","sqft":"10932","acres":"0.250964","vacant":"TRUE"}},{"type":"Feature","geometry":{"type":"Point","coordinates":[-73.82896971,40.6565206]},"properties":{"address":"RUSSELL STREET","borough":"Queens","bbl":"4142340875","zipcode":"11414","agency":"Department of Citywide Administrative Services","agencyshort":"DCAS","sqft":"12000","acres":"0.275482","vacant":"TRUE"}},{"type":"Feature","geometry":{"type":"Point","coordinates":[-73.81756121,40.58888458]},"properties":{"address":"BEACH CHANNEL D","borough":"Queens","bbl":"4161090047","zipcode":"11693","agency":"Department of Citywide Administrative Services","agencyshort":"DCAS","sqft":"21679","acres":"0.497681","vacant":"TRUE"}},{"type":"Feature","geometry":{"type":"Point","coordinates":[-73.81050191,40.59160882]},"properties":{"address":"BEACH 85 STREET","borough":"Queens","bbl":"4161100023","zipcode":"11693","agency":"Department of Citywide Administrative Services","agencyshort":"DCAS","sqft":"18966","acres":"0.435399","vacant":"TRUE"}},{"type":"Feature","geometry":{"type":"Point","coordinates":[-73.81051738,40.59198223]},"properties":{"address":"BEACH 85 STREET","borough":"Queens","bbl":"4161100040","zipcode":"11693","agency":"Department of Citywide Administrative Services","agencyshort":"DCAS","sqft":"66325","acres":"1.522612","vacant":"TRUE"}},{"type":"Feature","geometry":{"type":"Point","coordinates":[-73.81235391,40.59147133]},"properties":{"address":"BEACH 87 STREET","borough":"Queens","bbl":"4161100150","zipcode":"11693","agency":"Department of Citywide Administrative Services","agencyshort":"DCAS","sqft":"225500","acres":"5.176768","vacant":"TRUE"}},{"type":"Feature","geometry":{"type":"Point","coordinates":[-73.88501983,40.56817045]},"properties":{"address":"0","borough":"Queens","bbl":"4163400100","zipcode":"11697","agency":"Department of Citywide Administrative Services","agencyshort":"DCAS","sqft":"127539","acres":"2.927893","vacant":"TRUE"}},{"type":"Feature","geometry":{"type":"Point","coordinates":[-74.08736358,40.64822712]},"properties":{"address":"KILL VAN KULL","borough":"Staten Island","bbl":"5000020778","zipcode":"10301","agency":"Department of Citywide Administrative Services","agencyshort":"DCAS","sqft":"21750","acres":"0.499311","vacant":"TRUE"}},{"type":"Feature","geometry":{"type":"Point","coordinates":[-74.08836013,40.61679986]},"properties":{"address":"WOODSIDE AVENUE","borough":"Staten Island","bbl":"5006180256","zipcode":"","agency":"Department of Citywide Administrative Services","agencyshort":"DCAS","sqft":"16290","acres":"0.373967","vacant":"TRUE"}},{"type":"Feature","geometry":{"type":"Point","coordinates":[-74.18491228,40.52140272]},"properties":{"address":"IRVINGTON ST","borough":"Staten Island","bbl":"5065400012","zipcode":"10312","agency":"Department of Citywide Administrative Services","agencyshort":"DCAS","sqft":"38600","acres":"0.886134","vacant":"TRUE"}},{"type":"Feature","geometry":{"type":"Point","coordinates":[-74.19838359,40.53080505]},"properties":{"address":"DRUMGOOLE BLVD","borough":"Staten Island","bbl":"5068530044","zipcode":"10309","agency":"Department of Citywide Administrative Services","agencyshort":"DCAS","sqft":"16000","acres":"0.367309","vacant":"TRUE"}},{"type":"Feature","geometry":{"type":"Point","coordinates":[-74.22291707,40.54145611]},"properties":{"address":"WOODROW ROAD","borough":"Staten Island","bbl":"5071050011","zipcode":"10309","agency":"Department of Citywide Administrative Services","agencyshort":"DCAS","sqft":"80451","acres":"1.846901","vacant":"TRUE"}},{"type":"Feature","geometry":{"type":"Point","coordinates":[-74.0852079,40.64874526]},"properties":{"address":"KILL VAN KULL","borough":"Staten Island","bbl":"5000020800","zipcode":"10301","agency":"Department of Citywide Administrative Services","agencyshort":"DCAS","sqft":"94496","acres":"2.16933","vacant":"TRUE"}},{"type":"Feature","geometry":{"type":"Point","coordinates":[-74.08670903,40.64849735]},"properties":{"address":"KILL VAN KULL","borough":"Staten Island","bbl":"5000020801","zipcode":"10301","agency":"Department of Citywide Administrative Services","agencyshort":"DCAS","sqft":"41031","acres":"0.941942","vacant":"TRUE"}},{"type":"Feature","geometry":{"type":"Point","coordinates":[-74.18760586,40.61248289]},"properties":{"address":"BLOOMFIELD AV","borough":"Staten Island","bbl":"5017800095","zipcode":"10314","agency":"Department of Citywide Administrative Services","agencyshort":"DCAS","sqft":"148104","acres":"3.4","vacant":"TRUE"}},{"type":"Feature","geometry":{"type":"Point","coordinates":[-74.18715762,40.61356703]},"properties":{"address":"BLOOMFIELD AV","borough":"Staten Island","bbl":"5017800112","zipcode":"10314","agency":"Department of Citywide Administrative Services","agencyshort":"DCAS","sqft":"164656","acres":"3.779982","vacant":"TRUE"}},{"type":"Feature","geometry":{"type":"Point","coordinates":[-74.19136749,40.60001095]},"properties":{"address":"MEREDITH AVENUE","borough":"Staten Island","bbl":"5028000300","zipcode":"10314","agency":"Department of Citywide Administrative Services","agencyshort":"DCAS","sqft":"71600","acres":"1.64371","vacant":"TRUE"}},{"type":"Feature","geometry":{"type":"Point","coordinates":[-74.09145058,40.57916248]},"properties":{"address":"ROWAN ST","borough":"Staten Island","bbl":"5037150045","zipcode":"","agency":"Department of Citywide Administrative Services","agencyshort":"DCAS","sqft":"16000","acres":"0.367309","vacant":"TRUE"}},{"type":"Feature","geometry":{"type":"Point","coordinates":[-74.09217068,40.5795258]},"properties":{"address":"ROWAN ST","borough":"Staten Island","bbl":"5037150056","zipcode":"","agency":"Department of Citywide Administrative Services","agencyshort":"DCAS","sqft":"20000","acres":"0.459137","vacant":"TRUE"}},{"type":"Feature","geometry":{"type":"Point","coordinates":[-74.09409518,40.57679935]},"properties":{"address":"MASON AVENUE","borough":"Staten Island","bbl":"5037210099","zipcode":"10306","agency":"Department of Citywide Administrative Services","agencyshort":"DCAS","sqft":"55500","acres":"1.274105","vacant":"TRUE"}},{"type":"Feature","geometry":{"type":"Point","coordinates":[-74.1506784,40.55564045]},"properties":{"address":"SCHLEY AVE","borough":"Staten Island","bbl":"5046160032","zipcode":"10308","agency":"Department of Citywide Administrative Services","agencyshort":"DCAS","sqft":"10125","acres":"0.232438","vacant":"TRUE"}},{"type":"Feature","geometry":{"type":"Point","coordinates":[-74.15040715,40.55499427]},"properties":{"address":"SCHLEY AVE","borough":"Staten Island","bbl":"5046160044","zipcode":"10308","agency":"Department of Citywide Administrative Services","agencyshort":"DCAS","sqft":"16750","acres":"0.384527","vacant":"TRUE"}},{"type":"Feature","geometry":{"type":"Point","coordinates":[-74.14968775,40.55511455]},"properties":{"address":"DEWEY AVE","borough":"Staten Island","bbl":"5046170001","zipcode":"10308","agency":"Department of Citywide Administrative Services","agencyshort":"DCAS","sqft":"18620","acres":"0.427456","vacant":"TRUE"}},{"type":"Feature","geometry":{"type":"Point","coordinates":[-74.14989922,40.5555614]},"properties":{"address":"SCHLEY AVE","borough":"Staten Island","bbl":"5046170006","zipcode":"10308","agency":"Department of Citywide Administrative Services","agencyshort":"DCAS","sqft":"50407","acres":"1.157185","vacant":"TRUE"}},{"type":"Feature","geometry":{"type":"Point","coordinates":[-74.17994192,40.56421941]},"properties":{"address":"0 ARTHUR KILL ROAD","borough":"Staten Island","bbl":"5056870130","zipcode":"10312","agency":"Department of Citywide Administrative Services","agencyshort":"DCAS","sqft":"30900","acres":"0.709366","vacant":"TRUE"}},{"type":"Feature","geometry":{"type":"Point","coordinates":[-74.19913858,40.53052294]},"properties":{"address":"KELLER AVENUE","borough":"Staten Island","bbl":"5068610043","zipcode":"10309","agency":"Department of Citywide Administrative Services","agencyshort":"DCAS","sqft":"14000","acres":"0.321396","vacant":"TRUE"}},{"type":"Feature","geometry":{"type":"Point","coordinates":[-74.23133961,40.53037586]},"properties":{"address":"CLAUDE ST","borough":"Staten Island","bbl":"5074520075","zipcode":"","agency":"Department of Citywide Administrative Services","agencyshort":"DCAS","sqft":"351082","acres":"8.059734","vacant":"TRUE"}},{"type":"Feature","geometry":{"type":"Point","coordinates":[-74.238902,40.52891482]},"properties":{"address":"DRUMGOOLE BLVD","borough":"Staten Island","bbl":"5074940008","zipcode":"10309","agency":"Department of Citywide Administrative Services","agencyshort":"DCAS","sqft":"75000","acres":"1.721763","vacant":"TRUE"}},{"type":"Feature","geometry":{"type":"Point","coordinates":[-74.2379156,40.52885082]},"properties":{"address":"VETERENS ROAD WEST","borough":"Staten Island","bbl":"5074940095","zipcode":"10309","agency":"Department of Citywide Administrative Services","agencyshort":"DCAS","sqft":"82200","acres":"1.887052","vacant":"TRUE"}},{"type":"Feature","geometry":{"type":"Point","coordinates":[-74.23845978,40.52691867]},"properties":{"address":"WANIER AVE","borough":"Staten Island","bbl":"5075290012","zipcode":"","agency":"Department of Citywide Administrative Services","agencyshort":"DCAS","sqft":"22272","acres":"0.511295","vacant":"TRUE"}},{"type":"Feature","geometry":{"type":"Point","coordinates":[-74.23724515,40.52686108]},"properties":{"address":"WANIER AVE","borough":"Staten Island","bbl":"5075290026","zipcode":"","agency":"Department of Citywide Administrative Services","agencyshort":"DCAS","sqft":"34200","acres":"0.785124","vacant":"TRUE"}},{"type":"Feature","geometry":{"type":"Point","coordinates":[-74.23011866,40.52078757]},"properties":{"address":"WEINER ST","borough":"Staten Island","bbl":"5075650001","zipcode":"10309","agency":"Department of Citywide Administrative Services","agencyshort":"DCAS","sqft":"20110","acres":"0.461662","vacant":"TRUE"}},{"type":"Feature","geometry":{"type":"Point","coordinates":[-74.16522423,40.52618474]},"properties":{"address":"        BAYVIEW TERRACE","borough":"Staten Island","bbl":"5063530042","zipcode":"10312","agency":"Department of Citywide Administrative Services","agencyshort":"DCAS","sqft":"14400","acres":"0.330579","vacant":"TRUE"}},{"type":"Feature","geometry":{"type":"Point","coordinates":[-73.76658037,40.5936075]},"properties":{"address":"0 BEACH   35 STREET","borough":"Queens","bbl":"4158610001","zipcode":"11691","agency":"Department of Education","agencyshort":"DOE","sqft":"180000","acres":"4.132231","vacant":"TRUE"}},{"type":"Feature","geometry":{"type":"Point","coordinates":[-73.98264277,40.58677814]},"properties":{"address":"        AVENUE Y","borough":"Brooklyn","bbl":"3072050006","zipcode":"11223","agency":"Department of Education","agencyshort":"DOE","sqft":"11700","acres":"0.268595","vacant":"TRUE"}},{"type":"Feature","geometry":{"type":"Point","coordinates":[-73.96140263,40.68947465]},"properties":{"address":"        DE KALB AVENUE","borough":"Brooklyn","bbl":"3019330105","zipcode":"11205","agency":"Department of Education","agencyshort":"DOE","sqft":"26400","acres":"0.606061","vacant":"TRUE"}},{"type":"Feature","geometry":{"type":"Point","coordinates":[-73.91434239,40.67532738]},"properties":{"address":"        PACIFIC STREET","borough":"Brooklyn","bbl":"3014400032","zipcode":"11233","agency":"Department of Education","agencyshort":"DOE","sqft":"47172","acres":"1.08292","vacant":"TRUE"}},{"type":"Feature","geometry":{"type":"Point","coordinates":[-73.97771941,40.62204652]},"properties":{"address":"        21 AVENUE","borough":"Brooklyn","bbl":"3054951149","zipcode":"0","agency":"Department of Education","agencyshort":"DOE","sqft":"21670","acres":"0.497475","vacant":"TRUE"}},{"type":"Feature","geometry":{"type":"Point","coordinates":[-73.97841437,40.62226118]},"properties":{"address":"        20 AVENUE","borough":"Brooklyn","bbl":"3054951100","zipcode":"0","agency":"Department of Education","agencyshort":"DOE","sqft":"17445","acres":"0.400482","vacant":"TRUE"}},{"type":"Feature","geometry":{"type":"Point","coordinates":[-73.9823679,40.677668]},"properties":{"address":"207 4 AVENUE","borough":"Brooklyn","bbl":"3009520003","zipcode":"11217","agency":"Department of Environmental Protection","agencyshort":"DEP","sqft":"17960","acres":"0.412305","vacant":"TRUE"}},{"type":"Feature","geometry":{"type":"Point","coordinates":[-73.958579,40.6943]},"properties":{"address":"913 KENT AVENUE","borough":"Brooklyn","bbl":"3019120003","zipcode":"11205","agency":"Department of Environmental Protection","agencyshort":"DEP","sqft":"63619","acres":"1.460491","vacant":"TRUE"}},{"type":"Feature","geometry":{"type":"Point","coordinates":[-73.83130288,40.656307]},"properties":{"address":"102 STREET","borough":"Queens","bbl":"4142280062","zipcode":"","agency":"Department of Environmental Protection","agencyshort":"DEP","sqft":"100128","acres":"2.298623","vacant":"TRUE"}},{"type":"Feature","geometry":{"type":"Point","coordinates":[-73.8303359,40.65738856]},"properties":{"address":"102 STREET","borough":"Queens","bbl":"4142340554","zipcode":"11414","agency":"Department of Environmental Protection","agencyshort":"DEP","sqft":"25000","acres":"0.573921","vacant":"TRUE"}},{"type":"Feature","geometry":{"type":"Point","coordinates":[-74.00351514,40.67802164]},"properties":{"address":"727 HICKS STREET","borough":"Brooklyn","bbl":"3005210001","zipcode":"11231","agency":"Department of Environmental Protection","agencyshort":"DEP","sqft":"23000","acres":"0.528007","vacant":"TRUE"}},{"type":"Feature","geometry":{"type":"Point","coordinates":[-73.99761113,40.58567031]},"properties":{"address":"        HUNTER AVENUE","borough":"Brooklyn","bbl":"3069440500","zipcode":"11214","agency":"Department of Parks & Recreation","agencyshort":"Parks","sqft":"14286","acres":"0.327961","vacant":"TRUE"}},{"type":"Feature","geometry":{"type":"Point","coordinates":[-73.9965105,40.58618342]},"properties":{"address":"        HUNTER AVENUE","borough":"Brooklyn","bbl":"3069440440","zipcode":"11214","agency":"Department of Parks & Recreation","agencyshort":"Parks","sqft":"57858","acres":"1.328237","vacant":"TRUE"}},{"type":"Feature","geometry":{"type":"Point","coordinates":[-74.23022938,40.53135646]},"properties":{"address":"CADY AVE","borough":"Staten Island","bbl":"5074520001","zipcode":"","agency":"Department of Parks & Recreation","agencyshort":"Parks","sqft":"78600","acres":"1.804408","vacant":"TRUE"}},{"type":"Feature","geometry":{"type":"Point","coordinates":[-74.23107613,40.53149561]},"properties":{"address":"CADY AVE","borough":"Staten Island","bbl":"5074530001","zipcode":"","agency":"Department of Parks & Recreation","agencyshort":"Parks","sqft":"78600","acres":"1.804408","vacant":"TRUE"}},{"type":"Feature","geometry":{"type":"Point","coordinates":[-74.23399709,40.53191233]},"properties":{"address":"CADY AVE","borough":"Staten Island","bbl":"5074590025","zipcode":"","agency":"Department of Parks & Recreation","agencyshort":"Parks","sqft":"294620","acres":"6.763545","vacant":"TRUE"}},{"type":"Feature","geometry":{"type":"Point","coordinates":[-74.23258897,40.53172019]},"properties":{"address":"CADY AVE","borough":"Staten Island","bbl":"5074590050","zipcode":"","agency":"Department of Parks & Recreation","agencyshort":"Parks","sqft":"40300","acres":"0.925161","vacant":"TRUE"}},{"type":"Feature","geometry":{"type":"Point","coordinates":[-73.786545,40.59289]},"properties":{"address":"56-02 ARVERNE BOULEVARD","borough":"Queens","bbl":"4158940001","zipcode":"11692","agency":"Department of Parks & Recreation","agencyshort":"Parks","sqft":"42444","acres":"0.97438","vacant":"TRUE"}},{"type":"Feature","geometry":{"type":"Point","coordinates":[-74.1537112,40.63760039]},"properties":{"address":"RICHMOND TERRACE","borough":"Staten Island","bbl":"5011090059","zipcode":"10303","agency":"Department of Parks & Recreation","agencyshort":"Parks","sqft":"478261","acres":"10.979362","vacant":"TRUE"}},{"type":"Feature","geometry":{"type":"Point","coordinates":[-73.99214081,40.67557583]},"properties":{"address":"2 2 AVENUE","borough":"Brooklyn","bbl":"3009770003","zipcode":"11215","agency":"Department of Sanitation","agencyshort":"DSNY","sqft":"63904","acres":"1.467034","vacant":"TRUE"}},{"type":"Feature","geometry":{"type":"Point","coordinates":[-73.95365825,40.69833465]},"properties":{"address":"48 WARSOFF PLACE","borough":"Brooklyn","bbl":"3017180015","zipcode":"11205","agency":"Department of Sanitation","agencyshort":"DSNY","sqft":"47200","acres":"1.083563","vacant":"FALSE"}},{"type":"Feature","geometry":{"type":"Point","coordinates":[-73.91934555,40.60738106]},"properties":{"address":"2575 FLATBUSH AVENUE","borough":"Brooklyn","bbl":"3084700001","zipcode":"11234","agency":"Department of Small Business Services","agencyshort":"SBS","sqft":"61800","acres":"1.418733","vacant":"TRUE"}},{"type":"Feature","geometry":{"type":"Point","coordinates":[-73.93425105,40.82342596]},"properties":{"address":"HARLEM RIVER DRIVE","borough":"Manhattan","bbl":"1020160065","zipcode":"10039","agency":"Department of Small Business Services","agencyshort":"SBS","sqft":"46000","acres":"1.056015","vacant":"TRUE"}},{"type":"Feature","geometry":{"type":"Point","coordinates":[-73.93427163,40.82411151]},"properties":{"address":"HARLEM RIVER DRIVE","borough":"Manhattan","bbl":"1020160110","zipcode":"10039","agency":"Department of Small Business Services","agencyshort":"SBS","sqft":"13910","acres":"0.31933","vacant":"TRUE"}},{"type":"Feature","geometry":{"type":"Point","coordinates":[-73.96904239,40.74650851]},"properties":{"address":"MARGINAL STREET","borough":"Manhattan","bbl":"1009700014","zipcode":"","agency":"Department of Small Business Services","agencyshort":"SBS","sqft":"68350","acres":"1.5691","vacant":"TRUE"}},{"type":"Feature","geometry":{"type":"Point","coordinates":[-73.83893959,40.81884858]},"properties":{"address":"BRUSH AVENUE","borough":"Bronx","bbl":"2056110028","zipcode":"10465","agency":"Department of Small Business Services","agencyshort":"SBS","sqft":"10340","acres":"0.237374","vacant":"TRUE"}},{"type":"Feature","geometry":{"type":"Point","coordinates":[-73.8794285,40.80799117]},"properties":{"address":"HUNTS POINT","borough":"Bronx","bbl":"2027750279","zipcode":"10474","agency":"Department of Small Business Services","agencyshort":"SBS","sqft":"35150","acres":"0.806933","vacant":"TRUE"}},{"type":"Feature","geometry":{"type":"Point","coordinates":[-73.83383993,40.78090011]},"properties":{"address":"0   20 AVENUE","borough":"Queens","bbl":"4041800001","zipcode":"11356","agency":"Department of Small Business Services","agencyshort":"SBS","sqft":"137300","acres":"3.151974","vacant":"TRUE"}},{"type":"Feature","geometry":{"type":"Point","coordinates":[-73.83631195,40.77934783]},"properties":{"address":"0  132 STREET","borough":"Queens","bbl":"4042080001","zipcode":"","agency":"Department of Small Business Services","agencyshort":"SBS","sqft":"68100","acres":"1.563361","vacant":"TRUE"}},{"type":"Feature","geometry":{"type":"Point","coordinates":[-73.83568286,40.77941953]},"properties":{"address":"0  132 STREET","borough":"Queens","bbl":"4042090001","zipcode":"","agency":"Department of Small Business Services","agencyshort":"SBS","sqft":"144400","acres":"3.314968","vacant":"TRUE"}},{"type":"Feature","geometry":{"type":"Point","coordinates":[-73.83474652,40.77939424]},"properties":{"address":"0  133 STREET","borough":"Queens","bbl":"4042100001","zipcode":"","agency":"Department of Small Business Services","agencyshort":"SBS","sqft":"145600","acres":"3.342516","vacant":"TRUE"}},{"type":"Feature","geometry":{"type":"Point","coordinates":[-73.83288816,40.77939581]},"properties":{"address":"0  135 STREET","borough":"Queens","bbl":"4042120001","zipcode":"11356","agency":"Department of Small Business Services","agencyshort":"SBS","sqft":"145600","acres":"3.342516","vacant":"TRUE"}},{"type":"Feature","geometry":{"type":"Point","coordinates":[-73.83472611,40.77764922]},"properties":{"address":"0  133 STREET","borough":"Queens","bbl":"4042390001","zipcode":"","agency":"Department of Small Business Services","agencyshort":"SBS","sqft":"182000","acres":"4.178145","vacant":"TRUE"}},{"type":"Feature","geometry":{"type":"Point","coordinates":[-73.83382061,40.77765039]},"properties":{"address":"0  134 STREET","borough":"Queens","bbl":"4042400001","zipcode":"","agency":"Department of Small Business Services","agencyshort":"SBS","sqft":"184400","acres":"4.233242","vacant":"TRUE"}},{"type":"Feature","geometry":{"type":"Point","coordinates":[-73.83347585,40.77295727]},"properties":{"address":"28TH AVE","borough":"Queens","bbl":"4042820050","zipcode":"11357","agency":"Department of Small Business Services","agencyshort":"SBS","sqft":"11400","acres":"0.261708","vacant":"TRUE"}},{"type":"Feature","geometry":{"type":"Point","coordinates":[-73.83224374,40.77395402]},"properties":{"address":"28TH AVE","borough":"Queens","bbl":"4042820075","zipcode":"11357","agency":"Department of Small Business Services","agencyshort":"SBS","sqft":"92200","acres":"2.116621","vacant":"TRUE"}},{"type":"Feature","geometry":{"type":"Point","coordinates":[-73.83290493,40.77355962]},"properties":{"address":"0  135 STREET","borough":"Queens","bbl":"4043060001","zipcode":"","agency":"Department of Small Business Services","agencyshort":"SBS","sqft":"48100","acres":"1.104224","vacant":"TRUE"}},{"type":"Feature","geometry":{"type":"Point","coordinates":[-73.83335941,40.77380494]},"properties":{"address":"0  135 STREET","borough":"Queens","bbl":"4043060019","zipcode":"","agency":"Department of Small Business Services","agencyshort":"SBS","sqft":"20000","acres":"0.459137","vacant":"TRUE"}},{"type":"Feature","geometry":{"type":"Point","coordinates":[-73.83274421,40.77427985]},"properties":{"address":"0  135 STREET","borough":"Queens","bbl":"4043060020","zipcode":"","agency":"Department of Small Business Services","agencyshort":"SBS","sqft":"27550","acres":"0.632461","vacant":"TRUE"}},{"type":"Feature","geometry":{"type":"Point","coordinates":[-73.80793311,40.59218487]},"properties":{"address":"BARBADOES DRIVE","borough":"Queens","bbl":"4161030140","zipcode":"11693","agency":"Department of Small Business Services","agencyshort":"SBS","sqft":"285000","acres":"6.5427","vacant":"TRUE"}},{"type":"Feature","geometry":{"type":"Point","coordinates":[-73.89505159,40.77696062]},"properties":{"address":"18-01 45 STREET","borough":"Queens","bbl":"4007770001","zipcode":"11105","agency":"Department of Small Business Services","agencyshort":"SBS","sqft":"174017","acres":"3.994881","vacant":"TRUE"}},{"type":"Feature","geometry":{"type":"Point","coordinates":[-74.18423606,40.62803163]},"properties":{"address":"GULF AVENUE","borough":"Staten Island","bbl":"5018550008","zipcode":"10314","agency":"Department of Small Business Services","agencyshort":"SBS","sqft":"35750","acres":"0.820707","vacant":"TRUE"}},{"type":"Feature","geometry":{"type":"Point","coordinates":[-73.83480076,40.78089899]},"properties":{"address":"0  133 STREET","borough":"Queens","bbl":"4041790001","zipcode":"11356","agency":"Department of Small Business Services","agencyshort":"SBS","sqft":"138150","acres":"3.171488","vacant":"TRUE"}},{"type":"Feature","geometry":{"type":"Point","coordinates":[-73.83307522,40.78091846]},"properties":{"address":"0   20 AVENUE","borough":"Queens","bbl":"4041810026","zipcode":"11356","agency":"Department of Small Business Services","agencyshort":"SBS","sqft":"72500","acres":"1.664371","vacant":"TRUE"}},{"type":"Feature","geometry":{"type":"Point","coordinates":[-73.83268113,40.78089519]},"properties":{"address":"0   20 AVENUE","borough":"Queens","bbl":"4041810033","zipcode":"11356","agency":"Department of Small Business Services","agencyshort":"SBS","sqft":"60625","acres":"1.391758","vacant":"TRUE"}},{"type":"Feature","geometry":{"type":"Point","coordinates":[-73.83196005,40.78089592]},"properties":{"address":"0   20 AVENUE","borough":"Queens","bbl":"4041820001","zipcode":"11356","agency":"Department of Small Business Services","agencyshort":"SBS","sqft":"137800","acres":"3.163453","vacant":"TRUE"}},{"type":"Feature","geometry":{"type":"Point","coordinates":[-73.83382696,40.77940798]},"properties":{"address":"0  134 STREET","borough":"Queens","bbl":"4042110001","zipcode":"","agency":"Department of Small Business Services","agencyshort":"SBS","sqft":"145600","acres":"3.342516","vacant":"TRUE"}},{"type":"Feature","geometry":{"type":"Point","coordinates":[-73.83194434,40.77939123]},"properties":{"address":"0  136 STREET","borough":"Queens","bbl":"4042130001","zipcode":"","agency":"Department of Small Business Services","agencyshort":"SBS","sqft":"145600","acres":"3.342516","vacant":"TRUE"}},{"type":"Feature","geometry":{"type":"Point","coordinates":[-73.83287243,40.77765152]},"properties":{"address":"0  135 STREET","borough":"Queens","bbl":"4042410001","zipcode":"","agency":"Department of Small Business Services","agencyshort":"SBS","sqft":"182600","acres":"4.191919","vacant":"TRUE"}},{"type":"Feature","geometry":{"type":"Point","coordinates":[-73.83192685,40.77765272]},"properties":{"address":"0  136 STREET","borough":"Queens","bbl":"4042420001","zipcode":"","agency":"Department of Small Business Services","agencyshort":"SBS","sqft":"182000","acres":"4.178145","vacant":"TRUE"}},{"type":"Feature","geometry":{"type":"Point","coordinates":[-73.83453674,40.77531095]},"properties":{"address":"0  134 STREET","borough":"Queens","bbl":"4042780001","zipcode":"11354","agency":"Department of Small Business Services","agencyshort":"SBS","sqft":"52500","acres":"1.205234","vacant":"TRUE"}},{"type":"Feature","geometry":{"type":"Point","coordinates":[-73.83457209,40.77591544]},"properties":{"address":"0  134 STREET","borough":"Queens","bbl":"4042780017","zipcode":"11354","agency":"Department of Small Business Services","agencyshort":"SBS","sqft":"13148","acres":"0.301837","vacant":"TRUE"}},{"type":"Feature","geometry":{"type":"Point","coordinates":[-73.83244062,40.77560914]},"properties":{"address":"0  135 STREET","borough":"Queens","bbl":"4042800001","zipcode":"","agency":"Department of Small Business Services","agencyshort":"SBS","sqft":"242857","acres":"5.57523","vacant":"TRUE"}},{"type":"Feature","geometry":{"type":"Point","coordinates":[-73.83387881,40.77380489]},"properties":{"address":"0 LINDEN PLACE","borough":"Queens","bbl":"4043050001","zipcode":"","agency":"Department of Small Business Services","agencyshort":"SBS","sqft":"110000","acres":"2.525253","vacant":"TRUE"}},{"type":"Feature","geometry":{"type":"Point","coordinates":[-73.83566657,40.77825279]},"properties":{"address":"23-23 LINDEN PLACE","borough":"Queens","bbl":"4042380033","zipcode":"11354","agency":"Department of Small Business Services","agencyshort":"SBS","sqft":"64300","acres":"1.476125","vacant":"TRUE"}},{"type":"Feature","geometry":{"type":"Point","coordinates":[-74.13130339,40.64121334]},"properties":{"address":"RICHMOND AVENUE","borough":"Staten Island","bbl":"5010680001","zipcode":"10302","agency":"Department of Small Business Services","agencyshort":"SBS","sqft":"38812","acres":"0.891001","vacant":"TRUE"}},{"type":"Feature","geometry":{"type":"Point","coordinates":[-74.13612129,40.63873435]},"properties":{"address":"GROVE AVENUE","borough":"Staten Island","bbl":"5010760019","zipcode":"10302","agency":"Department of Small Business Services","agencyshort":"SBS","sqft":"19271","acres":"0.442401","vacant":"TRUE"}},{"type":"Feature","geometry":{"type":"Point","coordinates":[-74.14366276,40.63616718]},"properties":{"address":"JOHN STREET","borough":"Staten Island","bbl":"5011230116","zipcode":"10302","agency":"Department of Small Business Services","agencyshort":"SBS","sqft":"17756","acres":"0.407622","vacant":"TRUE"}},{"type":"Feature","geometry":{"type":"Point","coordinates":[-74.1387373,40.63831194]},"properties":{"address":"NICHOLAS AVENUE","borough":"Staten Island","bbl":"5010860022","zipcode":"10302","agency":"Department of Small Business Services","agencyshort":"SBS","sqft":"38640","acres":"0.887052","vacant":"TRUE"}},{"type":"Feature","geometry":{"type":"Point","coordinates":[-74.13188761,40.63903047]},"properties":{"address":"RICHMOND AVENUE","borough":"Staten Island","bbl":"5010040002","zipcode":"10302","agency":"Department of Small Business Services","agencyshort":"SBS","sqft":"16560","acres":"0.380165","vacant":"TRUE"}},{"type":"Feature","geometry":{"type":"Point","coordinates":[-73.99406386,40.58733443]},"properties":{"address":"        BAY 43 STREET","borough":"Brooklyn","bbl":"3069440160","zipcode":"11214","agency":"Department of Transportation","agencyshort":"DOT","sqft":"32130","acres":"0.737603","vacant":"TRUE"}},{"type":"Feature","geometry":{"type":"Point","coordinates":[-73.86633502,40.66352573]},"properties":{"address":"        HEMLOCK STREET","borough":"Brooklyn","bbl":"3045480112","zipcode":"11208","agency":"Department of Transportation","agencyshort":"DOT","sqft":"25309","acres":"0.581015","vacant":"TRUE"}},{"type":"Feature","geometry":{"type":"Point","coordinates":[-73.92903391,40.58657386]},"properties":{"address":"        PLUMB 2 STREET","borough":"Brooklyn","bbl":"3088410490","zipcode":"11235","agency":"Department of Transportation","agencyshort":"DOT","sqft":"16000","acres":"0.367309","vacant":"TRUE"}},{"type":"Feature","geometry":{"type":"Point","coordinates":[-73.90621758,40.62421472]},"properties":{"address":"        BERGEN AVENUE","borough":"Brooklyn","bbl":"3083740212","zipcode":"11234","agency":"Department of Transportation","agencyshort":"DOT","sqft":"19065","acres":"0.437672","vacant":"TRUE"}},{"type":"Feature","geometry":{"type":"Point","coordinates":[-73.90560452,40.62395338]},"properties":{"address":"        AVENUE T","borough":"Brooklyn","bbl":"3084160062","zipcode":"11234","agency":"Department of Transportation","agencyshort":"DOT","sqft":"12182","acres":"0.27966","vacant":"TRUE"}},{"type":"Feature","geometry":{"type":"Point","coordinates":[-73.90207612,40.64680207]},"properties":{"address":"        EAST 98 STREET","borough":"Brooklyn","bbl":"3081670020","zipcode":"11236","agency":"Department of Transportation","agencyshort":"DOT","sqft":"23600","acres":"0.541781","vacant":"TRUE"}},{"type":"Feature","geometry":{"type":"Point","coordinates":[-73.93324284,40.82974157]},"properties":{"address":"MAJ WM DEEGAN BLVD","borough":"Bronx","bbl":"2025390505","zipcode":"","agency":"Department of Transportation","agencyshort":"DOT","sqft":"52500","acres":"1.205234","vacant":"TRUE"}},{"type":"Feature","geometry":{"type":"Point","coordinates":[-73.8326332,40.88039586]},"properties":{"address":"2124 TILLOTSON AVENUE","borough":"Bronx","bbl":"2052340001","zipcode":"10475","agency":"Department of Transportation","agencyshort":"DOT","sqft":"21900","acres":"0.502755","vacant":"TRUE"}},{"type":"Feature","geometry":{"type":"Point","coordinates":[-73.90038865,40.78277885]},"properties":{"address":"38 STREET","borough":"Queens","bbl":"4008140237","zipcode":"11105","agency":"Department of Transportation","agencyshort":"DOT","sqft":"54000","acres":"1.239669","vacant":"TRUE"}},{"type":"Feature","geometry":{"type":"Point","coordinates":[-73.83569692,40.7808545]},"properties":{"address":"0   20 AVENUE","borough":"Queens","bbl":"4041780001","zipcode":"11356","agency":"Department of Transportation","agencyshort":"DOT","sqft":"138300","acres":"3.174931","vacant":"TRUE"}},{"type":"Feature","geometry":{"type":"Point","coordinates":[-73.86066031,40.67473451]},"properties":{"address":"        NORTH CONDUIT AVENUE","borough":"Queens","bbl":"4091280070","zipcode":"0","agency":"Department of Transportation","agencyshort":"DOT","sqft":"83420","acres":"1.91506","vacant":"TRUE"}},{"type":"Feature","geometry":{"type":"Point","coordinates":[-74.12342096,40.6151024]},"properties":{"address":"MANOR ROAD","borough":"Staten Island","bbl":"5003700200","zipcode":"10314","agency":"Department of Transportation","agencyshort":"DOT","sqft":"13629","acres":"0.312879","vacant":"TRUE"}},{"type":"Feature","geometry":{"type":"Point","coordinates":[-73.90575412,40.65190355]},"properties":{"address":"        ROCKAWAY AVENUE","borough":"Brooklyn","bbl":"3036440210","zipcode":"0","agency":"Economic Development Corporation","agencyshort":"EDC","sqft":"19508","acres":"0.447842","vacant":"TRUE"}},{"type":"Feature","geometry":{"type":"Point","coordinates":[-73.89874456,40.65057875]},"properties":{"address":"        FARRAGUT ROAD","borough":"Brooklyn","bbl":"3081520301","zipcode":"11236","agency":"Economic Development Corporation","agencyshort":"EDC","sqft":"54793","acres":"1.257874","vacant":"TRUE"}},{"type":"Feature","geometry":{"type":"Point","coordinates":[-73.84139191,40.76975619]},"properties":{"address":"COLLEGE POINT BOULEVARD","borough":"Queens","bbl":"4043570002","zipcode":"11354","agency":"Economic Development Corporation","agencyshort":"EDC","sqft":"72000","acres":"1.652893","vacant":"TRUE"}},{"type":"Feature","geometry":{"type":"Point","coordinates":[-73.82868148,40.77968405]},"properties":{"address":"20 AVENUE","borough":"Queens","bbl":"4041830001","zipcode":"11357","agency":"Economic Development Corporation","agencyshort":"EDC","sqft":"689500","acres":"15.828742","vacant":"TRUE"}},{"type":"Feature","geometry":{"type":"Point","coordinates":[-73.83099399,40.77763752]},"properties":{"address":"0  138 STREET","borough":"Queens","bbl":"4042430001","zipcode":"","agency":"Economic Development Corporation","agencyshort":"EDC","sqft":"144585","acres":"3.319215","vacant":"TRUE"}},{"type":"Feature","geometry":{"type":"Point","coordinates":[-73.83685931,40.7733359]},"properties":{"address":"26 ULMER STREET","borough":"Queens","bbl":"4043020001","zipcode":"11354","agency":"Economic Development Corporation","agencyshort":"EDC","sqft":"36425","acres":"0.836203","vacant":"TRUE"}},{"type":"Feature","geometry":{"type":"Point","coordinates":[-73.83578253,40.77298324]},"properties":{"address":"9 AVENUE","borough":"Queens","bbl":"4043320006","zipcode":"","agency":"Economic Development Corporation","agencyshort":"EDC","sqft":"24849","acres":"0.570455","vacant":"TRUE"}},{"type":"Feature","geometry":{"type":"Point","coordinates":[-73.83474442,40.77296611]},"properties":{"address":"WHITESTONE BRIDGE","borough":"Queens","bbl":"4043340050","zipcode":"","agency":"Economic Development Corporation","agencyshort":"EDC","sqft":"28000","acres":"0.642792","vacant":"TRUE"}},{"type":"Feature","geometry":{"type":"Point","coordinates":[-73.84497771,40.76595649]},"properties":{"address":"0 TALLMAN BOULEVARD","borough":"Queens","bbl":"4043940001","zipcode":"","agency":"Economic Development Corporation","agencyshort":"EDC","sqft":"110260","acres":"2.531221","vacant":"TRUE"}},{"type":"Feature","geometry":{"type":"Point","coordinates":[-74.19210865,40.59889815]},"properties":{"address":"0 WEST SHORE EXPRESSWAY","borough":"Staten Island","bbl":"5028000150","zipcode":"10314","agency":"Economic Development Corporation","agencyshort":"EDC","sqft":"101000","acres":"2.318641","vacant":"TRUE"}},{"type":"Feature","geometry":{"type":"Point","coordinates":[-74.19183297,40.59845882]},"properties":{"address":"MEREDITH AVENUE","borough":"Staten Island","bbl":"5028000163","zipcode":"10314","agency":"Economic Development Corporation","agencyshort":"EDC","sqft":"32000","acres":"0.734619","vacant":"TRUE"}},{"type":"Feature","geometry":{"type":"Point","coordinates":[-73.98593455,40.57515004]},"properties":{"address":"1905 SURF AVENUE","borough":"Brooklyn","bbl":"3070600027","zipcode":"11224","agency":"Housing Preservation and Development","agencyshort":"HPD","sqft":"11140","acres":"0.255739","vacant":"TRUE"}},{"type":"Feature","geometry":{"type":"Point","coordinates":[-73.90273011,40.66309565]},"properties":{"address":"        LIVONIA AVENUE","borough":"Brooklyn","bbl":"3038130115","zipcode":"11212","agency":"Housing Preservation and Development","agencyshort":"HPD","sqft":"40000","acres":"0.918274","vacant":"TRUE"}},{"type":"Feature","geometry":{"type":"Point","coordinates":[-73.8604864,40.66598797]},"properties":{"address":"        STANLEY AVENUE","borough":"Brooklyn","bbl":"3045360001","zipcode":"0","agency":"Housing Preservation and Development","agencyshort":"HPD","sqft":"70600","acres":"1.620753","vacant":"TRUE"}},{"type":"Feature","geometry":{"type":"Point","coordinates":[-73.85939279,40.6652302]},"properties":{"address":"        WORTMAN AVENUE","borough":"Brooklyn","bbl":"3045370039","zipcode":"11208","agency":"Housing Preservation and Development","agencyshort":"HPD","sqft":"21452","acres":"0.49247","vacant":"TRUE"}},{"type":"Feature","geometry":{"type":"Point","coordinates":[-73.9123449,40.6618051]},"properties":{"address":"        AMBOY STREET","borough":"Brooklyn","bbl":"3035860026","zipcode":"11212","agency":"Housing Preservation and Development","agencyshort":"HPD","sqft":"10017","acres":"0.229959","vacant":"TRUE"}},{"type":"Feature","geometry":{"type":"Point","coordinates":[-73.87560982,40.65642351]},"properties":{"address":"        FLATLANDS AVENUE","borough":"Brooklyn","bbl":"3044470001","zipcode":"0","agency":"Housing Preservation and Development","agencyshort":"HPD","sqft":"93000","acres":"2.134986","vacant":"TRUE"}},{"type":"Feature","geometry":{"type":"Point","coordinates":[-73.85769549,40.66670755]},"properties":{"address":"        STANLEY AVENUE","borough":"Brooklyn","bbl":"3045390004","zipcode":"11208","agency":"Housing Preservation and Development","agencyshort":"HPD","sqft":"13883","acres":"0.31871","vacant":"TRUE"}},{"type":"Feature","geometry":{"type":"Point","coordinates":[-73.85937349,40.66591059]},"properties":{"address":"        STANLEY AVENUE","borough":"Brooklyn","bbl":"3045370006","zipcode":"11208","agency":"Housing Preservation and Development","agencyshort":"HPD","sqft":"48960","acres":"1.123967","vacant":"TRUE"}},{"type":"Feature","geometry":{"type":"Point","coordinates":[-73.89922,40.664224]},"properties":{"address":"485 LIVONIA AVENUE","borough":"Brooklyn","bbl":"3038000001","zipcode":"11207","agency":"Housing Preservation and Development","agencyshort":"HPD","sqft":"20000","acres":"0.459137","vacant":"TRUE"}},{"type":"Feature","geometry":{"type":"Point","coordinates":[-73.91787806,40.66146059]},"properties":{"address":"        HOWARD AVENUE","borough":"Brooklyn","bbl":"3035660006","zipcode":"11212","agency":"Housing Preservation and Development","agencyshort":"HPD","sqft":"20000","acres":"0.459137","vacant":"TRUE"}},{"type":"Feature","geometry":{"type":"Point","coordinates":[-73.87025047,40.65872273]},"properties":{"address":"        VANDALIA AVENUE","borough":"Brooklyn","bbl":"3044520401","zipcode":"0","agency":"Housing Preservation and Development","agencyshort":"HPD","sqft":"13408","acres":"0.307805","vacant":"TRUE"}},{"type":"Feature","geometry":{"type":"Point","coordinates":[-73.85859852,40.66590228]},"properties":{"address":"        EMERALD STREET","borough":"Brooklyn","bbl":"3045380010","zipcode":"11208","agency":"Housing Preservation and Development","agencyshort":"HPD","sqft":"91000","acres":"2.089073","vacant":"TRUE"}},{"type":"Feature","geometry":{"type":"Point","coordinates":[-73.87479375,40.65679522]},"properties":{"address":"        FLATLANDS AVENUE","borough":"Brooklyn","bbl":"3044480001","zipcode":"0","agency":"Housing Preservation and Development","agencyshort":"HPD","sqft":"93000","acres":"2.134986","vacant":"TRUE"}},{"type":"Feature","geometry":{"type":"Point","coordinates":[-73.85773424,40.6659886]},"properties":{"address":"        AMBER STREET","borough":"Brooklyn","bbl":"3045390012","zipcode":"11208","agency":"Housing Preservation and Development","agencyshort":"HPD","sqft":"70445","acres":"1.617195","vacant":"TRUE"}},{"type":"Feature","geometry":{"type":"Point","coordinates":[-73.8991127,40.66689405]},"properties":{"address":"        HINSDALE STREET","borough":"Brooklyn","bbl":"3037840127","zipcode":"11207","agency":"Housing Preservation and Development","agencyshort":"HPD","sqft":"15000","acres":"0.344353","vacant":"TRUE"}},{"type":"Feature","geometry":{"type":"Point","coordinates":[-73.87581116,40.68097667]},"properties":{"address":"3269 ATLANTIC AVENUE","borough":"Brooklyn","bbl":"3041420032","zipcode":"11208","agency":"Housing Preservation and Development","agencyshort":"HPD","sqft":"81175","acres":"1.863522","vacant":"TRUE"}},{"type":"Feature","geometry":{"type":"Point","coordinates":[-73.87637767,40.65609067]},"properties":{"address":"        FLATLANDS AVENUE","borough":"Brooklyn","bbl":"3044460001","zipcode":"0","agency":"Housing Preservation and Development","agencyshort":"HPD","sqft":"93000","acres":"2.134986","vacant":"TRUE"}},{"type":"Feature","geometry":{"type":"Point","coordinates":[-73.85964226,40.66658368]},"properties":{"address":"        STANLEY AVENUE","borough":"Brooklyn","bbl":"3045370001","zipcode":"11208","agency":"Housing Preservation and Development","agencyshort":"HPD","sqft":"25826","acres":"0.592883","vacant":"TRUE"}},{"type":"Feature","geometry":{"type":"Point","coordinates":[-73.87723964,40.6557415]},"properties":{"address":"        FLATLANDS AVENUE","borough":"Brooklyn","bbl":"3044450001","zipcode":"0","agency":"Housing Preservation and Development","agencyshort":"HPD","sqft":"93000","acres":"2.134986","vacant":"TRUE"}},{"type":"Feature","geometry":{"type":"Point","coordinates":[-73.85664516,40.66624257]},"properties":{"address":"        STANLEY AVENUE","borough":"Brooklyn","bbl":"3045400010","zipcode":"11208","agency":"Housing Preservation and Development","agencyshort":"HPD","sqft":"95050","acres":"2.182048","vacant":"TRUE"}},{"type":"Feature","geometry":{"type":"Point","coordinates":[-73.87286258,40.65541353]},"properties":{"address":"        ELTON STREET","borough":"Brooklyn","bbl":"3044520700","zipcode":"0","agency":"Housing Preservation and Development","agencyshort":"HPD","sqft":"23217","acres":"0.532989","vacant":"TRUE"}},{"type":"Feature","geometry":{"type":"Point","coordinates":[-73.87339219,40.65614201]},"properties":{"address":"        ELTON STREET","borough":"Brooklyn","bbl":"3044520600","zipcode":"11208","agency":"Housing Preservation and Development","agencyshort":"HPD","sqft":"19004","acres":"0.436272","vacant":"TRUE"}},{"type":"Feature","geometry":{"type":"Point","coordinates":[-73.98499262,40.5759914]},"properties":{"address":"        WEST 17 STREET","borough":"Brooklyn","bbl":"3070610016","zipcode":"11224","agency":"Housing Preservation and Development","agencyshort":"HPD","sqft":"10287","acres":"0.236157","vacant":"TRUE"}},{"type":"Feature","geometry":{"type":"Point","coordinates":[-73.91627724,40.814043]},"properties":{"address":"457-67 EAST 147 STREET","borough":"Bronx","bbl":"2022920050","zipcode":"10455","agency":"Housing Preservation and Development","agencyshort":"HPD","sqft":"14963","acres":"0.343503","vacant":"TRUE"}},{"type":"Feature","geometry":{"type":"Point","coordinates":[-73.91402605,40.81724443]},"properties":{"address":"626 BERGEN AVENUE","borough":"Bronx","bbl":"2023610026","zipcode":"10455","agency":"Housing Preservation and Development","agencyshort":"HPD","sqft":"73200","acres":"1.680441","vacant":"TRUE"}},{"type":"Feature","geometry":{"type":"Point","coordinates":[-73.91846975,40.83792909]},"properties":{"address":"12 CLARKE PLACE","borough":"Bronx","bbl":"2028390010","zipcode":"10452","agency":"Housing Preservation and Development","agencyshort":"HPD","sqft":"10830","acres":"0.248623","vacant":"TRUE"}},{"type":"Feature","geometry":{"type":"Point","coordinates":[-73.89382183,40.83298153]},"properties":{"address":"1392 STEBBINS AVENUE","borough":"Bronx","bbl":"2029650008","zipcode":"10459","agency":"Housing Preservation and Development","agencyshort":"HPD","sqft":"14583","acres":"0.33478","vacant":"TRUE"}},{"type":"Feature","geometry":{"type":"Point","coordinates":[-73.76837263,40.59594147]},"properties":{"address":"332 BEACH 36 STREET","borough":"Queens","bbl":"4158250001","zipcode":"11691","agency":"Housing Preservation and Development","agencyshort":"HPD","sqft":"15350","acres":"0.352388","vacant":"TRUE"}},{"type":"Feature","geometry":{"type":"Point","coordinates":[-73.77302539,40.59368629]},"properties":{"address":"BEACH 41 STREET","borough":"Queens","bbl":"4158500006","zipcode":"11691","agency":"Housing Preservation and Development","agencyshort":"HPD","sqft":"19100","acres":"0.438476","vacant":"TRUE"}},{"type":"Feature","geometry":{"type":"Point","coordinates":[-73.77664523,40.59326153]},"properties":{"address":"ROCKAWAY BEACH BLVD","borough":"Queens","bbl":"4158530048","zipcode":"11691","agency":"Housing Preservation and Development","agencyshort":"HPD","sqft":"15173","acres":"0.348324","vacant":"TRUE"}},{"type":"Feature","geometry":{"type":"Point","coordinates":[-73.76691684,40.59521115]},"properties":{"address":"3421 EDGEMERE AVENUE","borough":"Queens","bbl":"4158610047","zipcode":"11691","agency":"Housing Preservation and Development","agencyshort":"HPD","sqft":"25000","acres":"0.573921","vacant":"TRUE"}},{"type":"Feature","geometry":{"type":"Point","coordinates":[-73.77076782,40.59261133]},"properties":{"address":"179 BEACH 38 STREET","borough":"Queens","bbl":"4158710001","zipcode":"11691","agency":"Housing Preservation and Development","agencyshort":"HPD","sqft":"309706","acres":"7.109871","vacant":"TRUE"}},{"type":"Feature","geometry":{"type":"Point","coordinates":[-73.77479565,40.59221713]},"properties":{"address":"0 EDGEMERE AVENUE","borough":"Queens","bbl":"4158760001","zipcode":"","agency":"Housing Preservation and Development","agencyshort":"HPD","sqft":"50067","acres":"1.14938","vacant":"TRUE"}},{"type":"Feature","geometry":{"type":"Point","coordinates":[-73.79182388,40.59178586]},"properties":{"address":"0 ROCKAWAY BEACH BOULEVARD","borough":"Queens","bbl":"4159070050","zipcode":"11692","agency":"Housing Preservation and Development","agencyshort":"HPD","sqft":"17637","acres":"0.40489","vacant":"TRUE"}},{"type":"Feature","geometry":{"type":"Point","coordinates":[-73.79263067,40.59157415]},"properties":{"address":"0 ROCKAWAY BEACH BOULEVARD","borough":"Queens","bbl":"4159080003","zipcode":"11692","agency":"Housing Preservation and Development","agencyshort":"HPD","sqft":"21737","acres":"0.499013","vacant":"TRUE"}},{"type":"Feature","geometry":{"type":"Point","coordinates":[-73.78318026,40.59124527]},"properties":{"address":"0 BEACH 54 STREET","borough":"Queens","bbl":"4159190001","zipcode":"","agency":"Housing Preservation and Development","agencyshort":"HPD","sqft":"222360","acres":"5.104683","vacant":"TRUE"}},{"type":"Feature","geometry":{"type":"Point","coordinates":[-73.78443342,40.59116107]},"properties":{"address":"0 BEACH 55 STREET","borough":"Queens","bbl":"4159210001","zipcode":"11692","agency":"Housing Preservation and Development","agencyshort":"HPD","sqft":"102572","acres":"2.354729","vacant":"TRUE"}},{"type":"Feature","geometry":{"type":"Point","coordinates":[-73.78727904,40.59192943]},"properties":{"address":"5721 ROCKAWAY BEACH BOULEVARD","borough":"Queens","bbl":"4159260200","zipcode":"11692","agency":"Housing Preservation and Development","agencyshort":"HPD","sqft":"23970","acres":"0.550275","vacant":"TRUE"}},{"type":"Feature","geometry":{"type":"Point","coordinates":[-73.80950343,40.59019802]},"properties":{"address":"8302 BEACH 83 STREET","borough":"Queens","bbl":"4161030060","zipcode":"11693","agency":"Housing Preservation and Development","agencyshort":"HPD","sqft":"12915","acres":"0.296488","vacant":"TRUE"}},{"type":"Feature","geometry":{"type":"Point","coordinates":[-73.75086912,40.77057181]},"properties":{"address":"38-80 DOUGLASTON PARKWAY","borough":"Queens","bbl":"4080820255","zipcode":"11363","agency":"Housing Preservation and Development","agencyshort":"HPD","sqft":"11873","acres":"0.272567","vacant":"TRUE"}},{"type":"Feature","geometry":{"type":"Point","coordinates":[-73.77833083,40.59439701]},"properties":{"address":"BEACH 47 STREET","borough":"Queens","bbl":"4158390051","zipcode":"11691","agency":"Housing Preservation and Development","agencyshort":"HPD","sqft":"10461","acres":"0.240152","vacant":"TRUE"}},{"type":"Feature","geometry":{"type":"Point","coordinates":[-73.7647924,40.59417752]},"properties":{"address":"BEACH 33 STREET","borough":"Queens","bbl":"4158590001","zipcode":"11691","agency":"Housing Preservation and Development","agencyshort":"HPD","sqft":"202980","acres":"4.65978","vacant":"TRUE"}},{"type":"Feature","geometry":{"type":"Point","coordinates":[-73.76567855,40.59407503]},"properties":{"address":"BEACH 34 STREET","borough":"Queens","bbl":"4158600001","zipcode":"11691","agency":"Housing Preservation and Development","agencyshort":"HPD","sqft":"204000","acres":"4.683196","vacant":"TRUE"}},{"type":"Feature","geometry":{"type":"Point","coordinates":[-73.76774474,40.5939228]},"properties":{"address":"0 EDGEMERE AVENUE","borough":"Queens","bbl":"4158620001","zipcode":"","agency":"Housing Preservation and Development","agencyshort":"HPD","sqft":"210000","acres":"4.820937","vacant":"TRUE"}},{"type":"Feature","geometry":{"type":"Point","coordinates":[-73.76869968,40.59357322]},"properties":{"address":"0 EDGEMERE AVENUE","borough":"Queens","bbl":"4158630001","zipcode":"","agency":"Housing Preservation and Development","agencyshort":"HPD","sqft":"202217","acres":"4.642264","vacant":"TRUE"}},{"type":"Feature","geometry":{"type":"Point","coordinates":[-73.76962429,40.59322662]},"properties":{"address":"134 BEACH 38 STREET","borough":"Queens","bbl":"4158640001","zipcode":"11691","agency":"Housing Preservation and Development","agencyshort":"HPD","sqft":"143357","acres":"3.291024","vacant":"TRUE"}},{"type":"Feature","geometry":{"type":"Point","coordinates":[-73.76441367,40.59218238]},"properties":{"address":"0 SPRAYVIEW AVENUE","borough":"Queens","bbl":"4158650001","zipcode":"","agency":"Housing Preservation and Development","agencyshort":"HPD","sqft":"60200","acres":"1.382002","vacant":"TRUE"}},{"type":"Feature","geometry":{"type":"Point","coordinates":[-73.76531104,40.59209252]},"properties":{"address":"3317 SPRAY VIEW AVENUE","borough":"Queens","bbl":"4158660001","zipcode":"11691","agency":"Housing Preservation and Development","agencyshort":"HPD","sqft":"59074","acres":"1.356152","vacant":"TRUE"}},{"type":"Feature","geometry":{"type":"Point","coordinates":[-73.76630306,40.59200231]},"properties":{"address":"SPRAYVIEW AVE.","borough":"Queens","bbl":"4158670001","zipcode":"","agency":"Housing Preservation and Development","agencyshort":"HPD","sqft":"72344","acres":"1.66079","vacant":"TRUE"}},{"type":"Feature","geometry":{"type":"Point","coordinates":[-73.76742487,40.59201997]},"properties":{"address":"75-99 BEACH 35 STREET","borough":"Queens","bbl":"4158680001","zipcode":"11691","agency":"Housing Preservation and Development","agencyshort":"HPD","sqft":"90850","acres":"2.085629","vacant":"TRUE"}},{"type":"Feature","geometry":{"type":"Point","coordinates":[-73.76840483,40.59184202]},"properties":{"address":"0 SPRAYVIEW AVENUE","borough":"Queens","bbl":"4158690001","zipcode":"","agency":"Housing Preservation and Development","agencyshort":"HPD","sqft":"58800","acres":"1.349862","vacant":"TRUE"}},{"type":"Feature","geometry":{"type":"Point","coordinates":[-73.7693704,40.5916753]},"properties":{"address":"0 SPRAYVIEW AVENUE","borough":"Queens","bbl":"4158700060","zipcode":"11691","agency":"Housing Preservation and Development","agencyshort":"HPD","sqft":"33900","acres":"0.778237","vacant":"TRUE"}},{"type":"Feature","geometry":{"type":"Point","coordinates":[-73.77217951,40.59243694]},"properties":{"address":"0 EDGEMERE AVENUE","borough":"Queens","bbl":"4158730001","zipcode":"","agency":"Housing Preservation and Development","agencyshort":"HPD","sqft":"106400","acres":"2.442608","vacant":"TRUE"}},{"type":"Feature","geometry":{"type":"Point","coordinates":[-73.77311275,40.59234699]},"properties":{"address":"158-200 BEACH 42 STREET","borough":"Queens","bbl":"4158740008","zipcode":"11691","agency":"Housing Preservation and Development","agencyshort":"HPD","sqft":"56012","acres":"1.285859","vacant":"TRUE"}},{"type":"Feature","geometry":{"type":"Point","coordinates":[-73.77285949,40.59227265]},"properties":{"address":"0 BEACH 42 STREET","borough":"Queens","bbl":"4158740041","zipcode":"11691","agency":"Housing Preservation and Development","agencyshort":"HPD","sqft":"42850","acres":"0.983701","vacant":"TRUE"}},{"type":"Feature","geometry":{"type":"Point","coordinates":[-73.77394113,40.59228]},"properties":{"address":"0 EDGEMERE AVENUE","borough":"Queens","bbl":"4158750001","zipcode":"11691","agency":"Housing Preservation and Development","agencyshort":"HPD","sqft":"74277","acres":"1.705165","vacant":"TRUE"}},{"type":"Feature","geometry":{"type":"Point","coordinates":[-73.77562659,40.59214944]},"properties":{"address":"0 EDGEMERE AVENUE","borough":"Queens","bbl":"4158770001","zipcode":"","agency":"Housing Preservation and Development","agencyshort":"HPD","sqft":"87573","acres":"2.010399","vacant":"TRUE"}},{"type":"Feature","geometry":{"type":"Point","coordinates":[-73.77633839,40.59208795]},"properties":{"address":"0 BEACH 46 STREET","borough":"Queens","bbl":"4158780001","zipcode":"","agency":"Housing Preservation and Development","agencyshort":"HPD","sqft":"54070","acres":"1.241276","vacant":"TRUE"}},{"type":"Feature","geometry":{"type":"Point","coordinates":[-73.77681758,40.59204846]},"properties":{"address":"0 EDGEMERE AVENUE","borough":"Queens","bbl":"4158790001","zipcode":"","agency":"Housing Preservation and Development","agencyshort":"HPD","sqft":"39310","acres":"0.902433","vacant":"TRUE"}},{"type":"Feature","geometry":{"type":"Point","coordinates":[-73.77722941,40.59201195]},"properties":{"address":"0 EDGEMERE AVENUE","borough":"Queens","bbl":"4158800001","zipcode":"11691","agency":"Housing Preservation and Development","agencyshort":"HPD","sqft":"40382","acres":"0.927043","vacant":"TRUE"}},{"type":"Feature","geometry":{"type":"Point","coordinates":[-73.77766015,40.59197268]},"properties":{"address":"0 EDGEMERE AVENUE","borough":"Queens","bbl":"4158810001","zipcode":"","agency":"Housing Preservation and Development","agencyshort":"HPD","sqft":"40985","acres":"0.940886","vacant":"TRUE"}},{"type":"Feature","geometry":{"type":"Point","coordinates":[-73.77809298,40.59192353]},"properties":{"address":"0 EDGEMERE AVENUE","borough":"Queens","bbl":"4158820001","zipcode":"","agency":"Housing Preservation and Development","agencyshort":"HPD","sqft":"41192","acres":"0.945638","vacant":"TRUE"}},{"type":"Feature","geometry":{"type":"Point","coordinates":[-73.77852243,40.59187467]},"properties":{"address":"0 EDGEMERE AVENUE","borough":"Queens","bbl":"4158830001","zipcode":"","agency":"Housing Preservation and Development","agencyshort":"HPD","sqft":"41525","acres":"0.953283","vacant":"TRUE"}},{"type":"Feature","geometry":{"type":"Point","coordinates":[-73.77895127,40.59182592]},"properties":{"address":"0 EDGEMERE AVENUE","borough":"Queens","bbl":"4158840001","zipcode":"","agency":"Housing Preservation and Development","agencyshort":"HPD","sqft":"41831","acres":"0.960308","vacant":"TRUE"}},{"type":"Feature","geometry":{"type":"Point","coordinates":[-73.7795857,40.59175184]},"properties":{"address":"0 BEACH 49 STREET","borough":"Queens","bbl":"4158850001","zipcode":"","agency":"Housing Preservation and Development","agencyshort":"HPD","sqft":"79244","acres":"1.819192","vacant":"TRUE"}},{"type":"Feature","geometry":{"type":"Point","coordinates":[-73.78037386,40.59166351]},"properties":{"address":"0 BEACH 50 STREET","borough":"Queens","bbl":"4158860001","zipcode":"","agency":"Housing Preservation and Development","agencyshort":"HPD","sqft":"80314","acres":"1.843756","vacant":"TRUE"}},{"type":"Feature","geometry":{"type":"Point","coordinates":[-73.78115467,40.59153384]},"properties":{"address":"0 BEACH 51 STREET","borough":"Queens","bbl":"4158870001","zipcode":"","agency":"Housing Preservation and Development","agencyshort":"HPD","sqft":"84600","acres":"1.942149","vacant":"TRUE"}},{"type":"Feature","geometry":{"type":"Point","coordinates":[-73.78809193,40.59222931]},"properties":{"address":"0 ROCKAWAY BEACH BOULEVARD","borough":"Queens","bbl":"4158970017","zipcode":"11692","agency":"Housing Preservation and Development","agencyshort":"HPD","sqft":"13500","acres":"0.309917","vacant":"TRUE"}},{"type":"Feature","geometry":{"type":"Point","coordinates":[-73.79042904,40.59210265]},"properties":{"address":"0 ROCKAWAY BEACH BOULEVARD","borough":"Queens","bbl":"4159010001","zipcode":"11692","agency":"Housing Preservation and Development","agencyshort":"HPD","sqft":"37248","acres":"0.8551","vacant":"TRUE"}},{"type":"Feature","geometry":{"type":"Point","coordinates":[-73.78521125,40.59112959]},"properties":{"address":"5513 BEACH 56 STREET","borough":"Queens","bbl":"4159220001","zipcode":"11692","agency":"Housing Preservation and Development","agencyshort":"HPD","sqft":"111100","acres":"2.550505","vacant":"TRUE"}},{"type":"Feature","geometry":{"type":"Point","coordinates":[-73.78600121,40.59108562]},"properties":{"address":"0 BEACH 56 STREET","borough":"Queens","bbl":"4159230001","zipcode":"","agency":"Housing Preservation and Development","agencyshort":"HPD","sqft":"107487","acres":"2.467562","vacant":"TRUE"}},{"type":"Feature","geometry":{"type":"Point","coordinates":[-73.76602224,40.59576487]},"properties":{"address":"EDGEMERE AVENUE","borough":"Queens","bbl":"4159470001","zipcode":"","agency":"Housing Preservation and Development","agencyshort":"HPD","sqft":"17493","acres":"0.401584","vacant":"TRUE"}},{"type":"Feature","geometry":{"type":"Point","coordinates":[-73.76698341,40.59573829]},"properties":{"address":"EDGEMERE AVENUE","borough":"Queens","bbl":"4159480001","zipcode":"11691","agency":"Housing Preservation and Development","agencyshort":"HPD","sqft":"43067","acres":"0.988682","vacant":"TRUE"}},{"type":"Feature","geometry":{"type":"Point","coordinates":[-73.77492869,40.59935143]},"properties":{"address":"BEACH 43 STREET","borough":"Queens","bbl":"4159610063","zipcode":"11691","agency":"Housing Preservation and Development","agencyshort":"HPD","sqft":"11000","acres":"0.252525","vacant":"TRUE"}},{"type":"Feature","geometry":{"type":"Point","coordinates":[-73.7760069,40.60022617]},"properties":{"address":"BEACH 44 STREET","borough":"Queens","bbl":"4159620019","zipcode":"11691","agency":"Housing Preservation and Development","agencyshort":"HPD","sqft":"17237","acres":"0.395707","vacant":"TRUE"}},{"type":"Feature","geometry":{"type":"Point","coordinates":[-73.77663704,40.5999886]},"properties":{"address":"BEACH 45 STREET","borough":"Queens","bbl":"4159630001","zipcode":"11691","agency":"Housing Preservation and Development","agencyshort":"HPD","sqft":"30492","acres":"0.7","vacant":"TRUE"}},{"type":"Feature","geometry":{"type":"Point","coordinates":[-73.77717923,40.59918176]},"properties":{"address":"BEACH 45 STREET","borough":"Queens","bbl":"4159640055","zipcode":"11691","agency":"Housing Preservation and Development","agencyshort":"HPD","sqft":"10569","acres":"0.242631","vacant":"TRUE"}},{"type":"Feature","geometry":{"type":"Point","coordinates":[-73.77954187,40.59611715]},"properties":{"address":"420 BEACH 49 STREET","borough":"Queens","bbl":"4159730001","zipcode":"11691","agency":"Housing Preservation and Development","agencyshort":"HPD","sqft":"73173","acres":"1.679821","vacant":"TRUE"}},{"type":"Feature","geometry":{"type":"Point","coordinates":[-73.80596389,40.59027445]},"properties":{"address":"0 BEACH 79 STREET","borough":"Queens","bbl":"4161000038","zipcode":"11693","agency":"Housing Preservation and Development","agencyshort":"HPD","sqft":"61216","acres":"1.405326","vacant":"TRUE"}},{"type":"Feature","geometry":{"type":"Point","coordinates":[-73.80885862,40.59030949]},"properties":{"address":"0 HAMMELS BOULEVARD","borough":"Queens","bbl":"4161030001","zipcode":"11693","agency":"Housing Preservation and Development","agencyshort":"HPD","sqft":"15848","acres":"0.36382","vacant":"TRUE"}},{"type":"Feature","geometry":{"type":"Point","coordinates":[-73.80722654,40.590542]},"properties":{"address":"BEACH 80 STREET","borough":"Queens","bbl":"4161040001","zipcode":"","agency":"Housing Preservation and Development","agencyshort":"HPD","sqft":"22700","acres":"0.52112","vacant":"TRUE"}},{"type":"Feature","geometry":{"type":"Point","coordinates":[-73.80823839,40.59056499]},"properties":{"address":"0 FINNARD AVENUE","borough":"Queens","bbl":"4161040028","zipcode":"","agency":"Housing Preservation and Development","agencyshort":"HPD","sqft":"14145","acres":"0.324725","vacant":"TRUE"}},{"type":"Feature","geometry":{"type":"Point","coordinates":[-73.80695803,40.59013888]},"properties":{"address":"310 HAMMELS BOULEVARD","borough":"Queens","bbl":"4161050001","zipcode":"11693","agency":"Housing Preservation and Development","agencyshort":"HPD","sqft":"20726","acres":"0.475803","vacant":"TRUE"}},{"type":"Feature","geometry":{"type":"Point","coordinates":[-73.80795671,40.59020445]},"properties":{"address":"0 HAMMELS BOULEVARD","borough":"Queens","bbl":"4161060001","zipcode":"","agency":"Housing Preservation and Development","agencyshort":"HPD","sqft":"33800","acres":"0.775941","vacant":"TRUE"}},{"type":"Feature","geometry":{"type":"Point","coordinates":[-74.23541398,40.50148484]},"properties":{"address":"514 RARITAN BAY","borough":"Staten Island","bbl":"5078260154","zipcode":"10307","agency":"Housing Preservation and Development","agencyshort":"HPD","sqft":"27000","acres":"0.619835","vacant":"TRUE"}},{"type":"Feature","geometry":{"type":"Point","coordinates":[-73.7819338,40.59141437]},"properties":{"address":"2-00 BEACH 52 STREET","borough":"Queens","bbl":"4158880001","zipcode":"11691","agency":"Housing Preservation and Development","agencyshort":"HPD","sqft":"91893","acres":"2.109573","vacant":"TRUE"}},{"type":"Feature","geometry":{"type":"Point","coordinates":[-73.84134215,40.75873463]},"properties":{"address":"127-20 WILLETS POINT BLVD","borough":"Queens","bbl":"4018330180","zipcode":"11368","agency":"Housing Preservation and Development","agencyshort":"HPD","sqft":"12000","acres":"0.275482","vacant":"TRUE"}},{"type":"Feature","geometry":{"type":"Point","coordinates":[-73.91588464,40.81597499]},"properties":{"address":"430 WESTCHESTER AVENUE","borough":"Bronx","bbl":"2022940032","zipcode":"10455","agency":"Housing Preservation and Development","agencyshort":"HPD","sqft":"25500","acres":"0.585399","vacant":"TRUE"}},{"type":"Feature","geometry":{"type":"Point","coordinates":[-73.91533613,40.81548329]},"properties":{"address":"459 EAST 149 STREET","borough":"Bronx","bbl":"2022940060","zipcode":"10455","agency":"Housing Preservation and Development","agencyshort":"HPD","sqft":"31000","acres":"0.711662","vacant":"TRUE"}},{"type":"Feature","geometry":{"type":"Point","coordinates":[-73.91478902,40.81672624]},"properties":{"address":"599 BROOK AVENUE","borough":"Bronx","bbl":"2023610001","zipcode":"10455","agency":"Housing Preservation and Development","agencyshort":"HPD","sqft":"41843","acres":"0.960583","vacant":"TRUE"}},{"type":"Feature","geometry":{"type":"Point","coordinates":[-73.9831572,40.58845529]},"properties":{"address":"        AVENUE X","borough":"Brooklyn","bbl":"3071850001","zipcode":"11223","agency":"New York City Transit (MTA)","agencyshort":"MTA","sqft":"42400","acres":"0.97337","vacant":"TRUE"}},{"type":"Feature","geometry":{"type":"Point","coordinates":[-73.98139007,40.58589869]},"properties":{"address":"        WEST 12 STREET","borough":"Brooklyn","bbl":"3072060026","zipcode":"11223","agency":"New York City Transit (MTA)","agencyshort":"MTA","sqft":"10040","acres":"0.230487","vacant":"TRUE"}},{"type":"Feature","geometry":{"type":"Point","coordinates":[-73.9797278,40.58631807]},"properties":{"address":"2600 11 STREET","borough":"Brooklyn","bbl":"3072080320","zipcode":"0","agency":"New York City Transit (MTA)","agencyshort":"MTA","sqft":"140260","acres":"3.219927","vacant":"TRUE"}},{"type":"Feature","geometry":{"type":"Point","coordinates":[-73.97620985,40.5824443]},"properties":{"address":"        SHORE PARKWAY","borough":"Brooklyn","bbl":"3072470218","zipcode":"11224","agency":"New York City Transit (MTA)","agencyshort":"MTA","sqft":"11932","acres":"0.273921","vacant":"TRUE"}},{"type":"Feature","geometry":{"type":"Point","coordinates":[-73.97910801,40.58431547]},"properties":{"address":"        AVENUE X","borough":"Brooklyn","bbl":"3072080280","zipcode":"11235","agency":"New York City Transit (MTA)","agencyshort":"MTA","sqft":"237320","acres":"5.448118","vacant":"TRUE"}},{"type":"Feature","geometry":{"type":"Point","coordinates":[-73.97867855,40.58233502]},"properties":{"address":"        SHORE PARKWAY","borough":"Brooklyn","bbl":"3072470013","zipcode":"11224","agency":"New York City Transit (MTA)","agencyshort":"MTA","sqft":"22016","acres":"0.505418","vacant":"TRUE"}},{"type":"Feature","geometry":{"type":"Point","coordinates":[-74.23588975,40.53041952]},"properties":{"address":"ARTHUR KILL ROAD","borough":"Staten Island","bbl":"5074870100","zipcode":"10309","agency":"New York City Transit (MTA)","agencyshort":"MTA","sqft":"3632321","acres":"83.386616","vacant":"TRUE"}},{"type":"Feature","geometry":{"type":"Point","coordinates":[-73.863753,40.677907]},"properties":{"address":"FORBELL STREET","borough":"Brooklyn","bbl":"3042060001","zipcode":"11208","agency":"New York City Transit (MTA)","agencyshort":"MTA","sqft":"15914","acres":"0.36534","vacant":"TRUE"}},{"type":"Feature","geometry":{"type":"Point","coordinates":[-73.94472452,40.73983845]},"properties":{"address":"        BORDEN AVENUE","borough":"Queens","bbl":"4001090003","zipcode":"11101","agency":"New York City Transit (MTA)","agencyshort":"MTA","sqft":"18000","acres":"0.413223","vacant":"TRUE"}},{"type":"Feature","geometry":{"type":"Point","coordinates":[-73.94462533,40.74052859]},"properties":{"address":"        51 AVENUE","borough":"Queens","bbl":"4001100001","zipcode":"11101","agency":"New York City Transit (MTA)","agencyshort":"MTA","sqft":"24969","acres":"0.573209","vacant":"TRUE"}},{"type":"Feature","geometry":{"type":"Point","coordinates":[-73.94448396,40.74121423]},"properties":{"address":"        50 AVENUE","borough":"Queens","bbl":"4001110001","zipcode":"11101","agency":"New York City Transit (MTA)","agencyshort":"MTA","sqft":"18711","acres":"0.429545","vacant":"TRUE"}},{"type":"Feature","geometry":{"type":"Point","coordinates":[-73.94373935,40.74273494]},"properties":{"address":"        49 AVENUE","borough":"Queens","bbl":"4001000002","zipcode":"11101","agency":"New York City Transit (MTA)","agencyshort":"MTA","sqft":"99968","acres":"2.294949","vacant":"TRUE"}},{"type":"Feature","geometry":{"type":"Point","coordinates":[-73.96328518,40.64978743]},"properties":{"address":"        EAST 18 STREET","borough":"Brooklyn","bbl":"3050780032","zipcode":"11226","agency":"New York City Transit (MTA)","agencyshort":"MTA","sqft":"12792","acres":"0.293664","vacant":"TRUE"}},{"type":"Feature","geometry":{"type":"Point","coordinates":[-73.96226985,40.7627572]},"properties":{"address":"1190 2 AVENUE","borough":"Manhattan","bbl":"1014370049","zipcode":"10065","agency":"New York City Transit (MTA)","agencyshort":"MTA","sqft":"15063","acres":"0.345799","vacant":"TRUE"}},{"type":"Feature","geometry":{"type":"Point","coordinates":[-74.07947613,40.62096059]},"properties":{"address":"WARREN STREET","borough":"Staten Island","bbl":"5005560100","zipcode":"10304","agency":"NY Police Department","agencyshort":"NYPD","sqft":"104355","acres":"2.395661","vacant":"TRUE"}},{"type":"Feature","geometry":{"type":"Point","coordinates":[-73.93406868,40.69449065]},"properties":{"address":"        STUYVESANT AVENUE","borough":"Brooklyn","bbl":"3015960001","zipcode":"11221","agency":"NYC Housing Authority","agencyshort":"NYCHA","sqft":"16523","acres":"0.379316","vacant":"TRUE"}},{"type":"Feature","geometry":{"type":"Point","coordinates":[-73.91782732,40.67157293]},"properties":{"address":"1800 PARK PLACE","borough":"Brooklyn","bbl":"3014670035","zipcode":"11233","agency":"NYC Housing Authority","agencyshort":"NYCHA","sqft":"57630","acres":"1.323003","vacant":"TRUE"}},{"type":"Feature","geometry":{"type":"Point","coordinates":[-73.91618289,40.68529775]},"properties":{"address":"901 MACON STREET","borough":"Brooklyn","bbl":"3014950013","zipcode":"11233","agency":"NYC Housing Authority","agencyshort":"NYCHA","sqft":"33353","acres":"0.76568","vacant":"TRUE"}},{"type":"Feature","geometry":{"type":"Point","coordinates":[-74.00722565,40.63208353]},"properties":{"address":"6202 FT HAMILTON PARKWAY","borough":"Brooklyn","bbl":"3057290024","zipcode":"11219","agency":"School Construction Authority","agencyshort":"SCA","sqft":"11186","acres":"0.256795","vacant":"TRUE"}},{"type":"Feature","geometry":{"type":"Point","coordinates":[-73.99722737,40.67197224]},"properties":{"address":"        12 STREET","borough":"Brooklyn","bbl":"3010070269","zipcode":"11215","agency":"Department of Small Business Services","agencyshort":"SBS","sqft":"29990","acres":"0.688476","vacant":"TRUE"}},{"type":"Feature","geometry":{"type":"Point","coordinates":[-73.91400498,40.60254299]},"properties":{"address":"        FLATBUSH AVENUE","borough":"Brooklyn","bbl":"3085910175","zipcode":"11234","agency":"Department of Small Business Services","agencyshort":"SBS","sqft":"76625","acres":"1.759068","vacant":"TRUE"}}]}