{"type":"FeatureCollection","features":[{"type":"Feature","geometry":{"type":"Point","coordinates":[-73.91292353,40.82483541]},"properties":{"address":"413 EAST 162 STREET","borough":"Bronx","bbl":"2023840057","zipcode":"10451","agency":"Housing Preservation and Development","agencyshort":"HPD","sqft":"2501","acres":"0.057415","vacant":"TRUE"}},{"type":"Feature","geometry":{"type":"Point","coordinates":[-73.9130051,40.82486155]},"properties":{"address":"409 EAST 162 STREET","borough":"Bronx","bbl":"2023840058","zipcode":"10451","agency":"Housing Preservation and Development","agencyshort":"HPD","sqft":"2501","acres":"0.057415","vacant":"TRUE"}},{"type":"Feature","geometry":{"type":"Point","coordinates":[-73.91308667,40.82488768]},"properties":{"address":"407 EAST 162 STREET","borough":"Bronx","bbl":"2023840059","zipcode":"10451","agency":"Housing Preservation and Development","agencyshort":"HPD","sqft":"2501","acres":"0.057415","vacant":"TRUE"}},{"type":"Feature","geometry":{"type":"Point","coordinates":[-73.91317064,40.82491528]},"properties":{"address":"405 EAST 162 STREET","borough":"Bronx","bbl":"2023840060","zipcode":"10451","agency":"Housing Preservation and Development","agencyshort":"HPD","sqft":"2501","acres":"0.057415","vacant":"TRUE"}},{"type":"Feature","geometry":{"type":"Point","coordinates":[-73.9113356,40.66185647]},"properties":{"address":"753 HOPKINSON AVENUE","borough":"Brooklyn","bbl":"3035870027","zipcode":"11212","agency":"Housing Preservation and Development","agencyshort":"HPD","sqft":"2517","acres":"0.057782","vacant":"TRUE"}},{"type":"Feature","geometry":{"type":"Point","coordinates":[-73.917248,40.68703871]},"properties":{"address":"        BROADWAY","borough":"Brooklyn","bbl":"3033870009","zipcode":"11221","agency":"Housing Preservation and Development","agencyshort":"HPD","sqft":"2520","acres":"0.057851","vacant":"TRUE"}},{"type":"Feature","geometry":{"type":"Point","coordinates":[-73.92285772,40.68463819]},"properties":{"address":"774 HALSEY STREET","borough":"Brooklyn","bbl":"3014930001","zipcode":"11233","agency":"Housing Preservation and Development","agencyshort":"HPD","sqft":"2525","acres":"0.057966","vacant":"TRUE"}},{"type":"Feature","geometry":{"type":"Point","coordinates":[-73.95400762,40.80353272]},"properties":{"address":"228 WEST 116 STREET","borough":"Manhattan","bbl":"1018310047","zipcode":"10026","agency":"Housing Preservation and Development","agencyshort":"HPD","sqft":"2534","acres":"0.058173","vacant":"TRUE"}},{"type":"Feature","geometry":{"type":"Point","coordinates":[-73.88102821,40.66884752]},"properties":{"address":"671 LINWOOD STREET","borough":"Brooklyn","bbl":"3040670008","zipcode":"11208","agency":"Housing Preservation and Development","agencyshort":"HPD","sqft":"2547","acres":"0.058471","vacant":"TRUE"}},{"type":"Feature","geometry":{"type":"Point","coordinates":[-74.09560002,40.5768509]},"properties":{"address":"BEACHVIEW AVE","borough":"Staten Island","bbl":"5037250017","zipcode":"10306","agency":"Department of Citywide Administrative Services","agencyshort":"DCAS","sqft":"2550","acres":"0.05854","vacant":"TRUE"}},{"type":"Feature","geometry":{"type":"Point","coordinates":[-73.89919697,40.66122067]},"properties":{"address":"558 SNEDIKER AVENUE","borough":"Brooklyn","bbl":"3038330044","zipcode":"11207","agency":"Housing Preservation and Development","agencyshort":"HPD","sqft":"2550","acres":"0.05854","vacant":"TRUE"}},{"type":"Feature","geometry":{"type":"Point","coordinates":[-73.91276941,40.67344328]},"properties":{"address":"        ST MARKS AVENUE","borough":"Brooklyn","bbl":"3014540066","zipcode":"11233","agency":"Housing Preservation and Development","agencyshort":"HPD","sqft":"2555","acres":"0.058655","vacant":"TRUE"}},{"type":"Feature","geometry":{"type":"Point","coordinates":[-73.92591177,40.68132176]},"properties":{"address":"        BAINBRIDGE STREET","borough":"Brooklyn","bbl":"3016870047","zipcode":"11233","agency":"Housing Preservation and Development","agencyshort":"HPD","sqft":"2555","acres":"0.058655","vacant":"TRUE"}},{"type":"Feature","geometry":{"type":"Point","coordinates":[-73.82961854,40.65693153]},"properties":{"address":"HAWTREE CREEK R","borough":"Queens","bbl":"4142340503","zipcode":"11414","agency":"Department of Citywide Administrative Services","agencyshort":"DCAS","sqft":"2560","acres":"0.05877","vacant":"TRUE"}},{"type":"Feature","geometry":{"type":"Point","coordinates":[-73.9088532,40.66110246]},"properties":{"address":"768 ROCKAWAY AVENUE","borough":"Brooklyn","bbl":"3035890001","zipcode":"11212","agency":"Housing Preservation and Development","agencyshort":"HPD","sqft":"2567","acres":"0.05893","vacant":"TRUE"}},{"type":"Feature","geometry":{"type":"Point","coordinates":[-73.92146538,40.84531117]},"properties":{"address":"1519 PLIMPTON AVENUE","borough":"Bronx","bbl":"2028750067","zipcode":"10452","agency":"Department of Transportation","agencyshort":"DOT","sqft":"2573","acres":"0.059068","vacant":"TRUE"}},{"type":"Feature","geometry":{"type":"Point","coordinates":[-73.77503969,40.5953783]},"properties":{"address":"357 BEACH 43 STREET","borough":"Queens","bbl":"4158340042","zipcode":"11691","agency":"Housing Preservation and Development","agencyshort":"HPD","sqft":"2574","acres":"0.059091","vacant":"TRUE"}},{"type":"Feature","geometry":{"type":"Point","coordinates":[-73.80985755,40.59101931]},"properties":{"address":"318 BEACH 84 STREET","borough":"Queens","bbl":"4161030083","zipcode":"11693","agency":"Department of Citywide Administrative Services","agencyshort":"DCAS","sqft":"2583","acres":"0.059298","vacant":"TRUE"}},{"type":"Feature","geometry":{"type":"Point","coordinates":[-73.92498221,40.67753612]},"properties":{"address":"1835 ATLANTIC AVENUE","borough":"Brooklyn","bbl":"3017100052","zipcode":"11233","agency":"Housing Preservation and Development","agencyshort":"HPD","sqft":"2585","acres":"0.059343","vacant":"TRUE"}},{"type":"Feature","geometry":{"type":"Point","coordinates":[-73.77638328,40.59624488]},"properties":{"address":"BEACH 45 STREET","borough":"Queens","bbl":"4159670010","zipcode":"11691","agency":"Housing Preservation and Development","agencyshort":"HPD","sqft":"2586","acres":"0.059366","vacant":"TRUE"}},{"type":"Feature","geometry":{"type":"Point","coordinates":[-73.98263018,40.7014885]},"properties":{"address":"199 YORK STREET","borough":"Brooklyn","bbl":"3000560037","zipcode":"11201","agency":"Housing Preservation and Development","agencyshort":"HPD","sqft":"2587","acres":"0.059389","vacant":"TRUE"}},{"type":"Feature","geometry":{"type":"Point","coordinates":[-73.91107065,40.81733825]},"properties":{"address":"672 ST ANNS AVENUE","borough":"Bronx","bbl":"2026170020","zipcode":"10455","agency":"Housing Preservation and Development","agencyshort":"HPD","sqft":"2589","acres":"0.059435","vacant":"TRUE"}},{"type":"Feature","geometry":{"type":"Point","coordinates":[-74.08846912,40.5750013]},"properties":{"address":"BADEN PL","borough":"Staten Island","bbl":"5037940030","zipcode":"10306","agency":"Department of Citywide Administrative Services","agencyshort":"DCAS","sqft":"2600","acres":"0.059688","vacant":"TRUE"}},{"type":"Feature","geometry":{"type":"Point","coordinates":[-73.77524085,40.59713361]},"properties":{"address":"BEACH 43 STREET","borough":"Queens","bbl":"4159650095","zipcode":"11691","agency":"Housing Preservation and Development","agencyshort":"HPD","sqft":"2600","acres":"0.059688","vacant":"TRUE"}},{"type":"Feature","geometry":{"type":"Point","coordinates":[-73.81857729,40.60988471]},"properties":{"address":"542 CROSS BAY BOULEVARD","borough":"Queens","bbl":"4154000039","zipcode":"11693","agency":"Department of Citywide Administrative Services","agencyshort":"DCAS","sqft":"2601","acres":"0.059711","vacant":"TRUE"}},{"type":"Feature","geometry":{"type":"Point","coordinates":[-73.76560019,40.66358141]},"properties":{"address":"17924 145 DRIVE","borough":"Queens","bbl":"4133440032","zipcode":"11434","agency":"Department of Citywide Administrative Services","agencyshort":"DCAS","sqft":"2605","acres":"0.059803","vacant":"TRUE"}},{"type":"Feature","geometry":{"type":"Point","coordinates":[-73.77530202,40.59767622]},"properties":{"address":"471 BEACH 43 STREET","borough":"Queens","bbl":"4159650085","zipcode":"11691","agency":"Housing Preservation and Development","agencyshort":"HPD","sqft":"2608","acres":"0.059871","vacant":"TRUE"}},{"type":"Feature","geometry":{"type":"Point","coordinates":[-73.77530904,40.59773113]},"properties":{"address":"473 BEACH 43 STREET","borough":"Queens","bbl":"4159650084","zipcode":"11691","agency":"Housing Preservation and Development","agencyshort":"HPD","sqft":"2609","acres":"0.059894","vacant":"TRUE"}},{"type":"Feature","geometry":{"type":"Point","coordinates":[-73.78991895,40.69358219]},"properties":{"address":"UNION HALL STREET","borough":"Queens","bbl":"4121520010","zipcode":"11433","agency":"Housing Preservation and Development","agencyshort":"HPD","sqft":"2609","acres":"0.059894","vacant":"TRUE"}},{"type":"Feature","geometry":{"type":"Point","coordinates":[-73.77532307,40.59784095]},"properties":{"address":"477 BEACH 43 STREET","borough":"Queens","bbl":"4159650082","zipcode":"11691","agency":"Housing Preservation and Development","agencyshort":"HPD","sqft":"2610","acres":"0.059917","vacant":"TRUE"}},{"type":"Feature","geometry":{"type":"Point","coordinates":[-73.77531605,40.59778604]},"properties":{"address":"475 BEACH 43 STREET","borough":"Queens","bbl":"4159650083","zipcode":"11691","agency":"Housing Preservation and Development","agencyshort":"HPD","sqft":"2610","acres":"0.059917","vacant":"TRUE"}},{"type":"Feature","geometry":{"type":"Point","coordinates":[-73.912426,40.683596]},"properties":{"address":"768 DECATUR STREET","borough":"Brooklyn","bbl":"3015070032","zipcode":"11233","agency":"Housing Preservation and Development","agencyshort":"HPD","sqft":"2611","acres":"0.05994","vacant":"TRUE"}},{"type":"Feature","geometry":{"type":"Point","coordinates":[-73.77532649,40.59789585]},"properties":{"address":"479 BEACH 43 STREET","borough":"Queens","bbl":"4159650081","zipcode":"11691","agency":"Housing Preservation and Development","agencyshort":"HPD","sqft":"2611","acres":"0.05994","vacant":"TRUE"}},{"type":"Feature","geometry":{"type":"Point","coordinates":[-73.7753335,40.59795076]},"properties":{"address":"481 BEACH 43 STREET","borough":"Queens","bbl":"4159650080","zipcode":"11691","agency":"Housing Preservation and Development","agencyshort":"HPD","sqft":"2612","acres":"0.059963","vacant":"TRUE"}},{"type":"Feature","geometry":{"type":"Point","coordinates":[-73.9543177,40.64644766]},"properties":{"address":"2334 TILDEN AVENUE","borough":"Brooklyn","bbl":"3051350016","zipcode":"11226","agency":"Housing Preservation and Development","agencyshort":"HPD","sqft":"2613","acres":"0.059986","vacant":"TRUE"}},{"type":"Feature","geometry":{"type":"Point","coordinates":[-73.74388184,40.59687461]},"properties":{"address":"BEACH 9 STREET","borough":"Queens","bbl":"4156000775","zipcode":"11691","agency":"Department of Citywide Administrative Services","agencyshort":"DCAS","sqft":"2616","acres":"0.060055","vacant":"TRUE"}},{"type":"Feature","geometry":{"type":"Point","coordinates":[-73.9334695,40.80346231]},"properties":{"address":"2459 SECOND AVENUE","borough":"Manhattan","bbl":"1017900029","zipcode":"10035","agency":"Housing Preservation and Development","agencyshort":"HPD","sqft":"2616","acres":"0.060055","vacant":"TRUE"}},{"type":"Feature","geometry":{"type":"Point","coordinates":[-74.0951433,40.57720187]},"properties":{"address":"HUNTER AVE","borough":"Staten Island","bbl":"5037220029","zipcode":"10306","agency":"Department of Citywide Administrative Services","agencyshort":"DCAS","sqft":"2620","acres":"0.060147","vacant":"TRUE"}},{"type":"Feature","geometry":{"type":"Point","coordinates":[-74.22170426,40.54808905]},"properties":{"address":"CHARLESTON AVENUE","borough":"Staten Island","bbl":"5071000100","zipcode":"10309","agency":"Department of Citywide Administrative Services","agencyshort":"DCAS","sqft":"2620","acres":"0.060147","vacant":"TRUE"}},{"type":"Feature","geometry":{"type":"Point","coordinates":[-73.77548298,40.599237]},"properties":{"address":"BEACH 43 STREET","borough":"Queens","bbl":"4159620183","zipcode":"11691","agency":"Housing Preservation and Development","agencyshort":"HPD","sqft":"2620","acres":"0.060147","vacant":"TRUE"}},{"type":"Feature","geometry":{"type":"Point","coordinates":[-73.95829245,40.80205219]},"properties":{"address":"312 WEST 112 STREET","borough":"Manhattan","bbl":"1018460055","zipcode":"10026","agency":"Housing Preservation and Development","agencyshort":"HPD","sqft":"2624","acres":"0.060239","vacant":"TRUE"}},{"type":"Feature","geometry":{"type":"Point","coordinates":[-73.89499408,40.67051348]},"properties":{"address":"396 BELMONT AVENUE","borough":"Brooklyn","bbl":"3037550020","zipcode":"11207","agency":"Human Resources Administration","agencyshort":"HRA","sqft":"2624","acres":"0.060239","vacant":"TRUE"}},{"type":"Feature","geometry":{"type":"Point","coordinates":[-73.9133735,40.67186274]},"properties":{"address":"        EASTERN PARKWAY","borough":"Brooklyn","bbl":"3014650014","zipcode":"11233","agency":"Housing Preservation and Development","agencyshort":"HPD","sqft":"2625","acres":"0.060262","vacant":"TRUE"}},{"type":"Feature","geometry":{"type":"Point","coordinates":[-73.77232092,40.59392871]},"properties":{"address":"ROCKAWAY BEACH BLVD","borough":"Queens","bbl":"4158490019","zipcode":"11691","agency":"Housing Preservation and Development","agencyshort":"HPD","sqft":"2626","acres":"0.060285","vacant":"TRUE"}},{"type":"Feature","geometry":{"type":"Point","coordinates":[-73.77223673,40.59394595]},"properties":{"address":"ROCKAWAY BEACH BLVD","borough":"Queens","bbl":"4158490020","zipcode":"11691","agency":"Housing Preservation and Development","agencyshort":"HPD","sqft":"2626","acres":"0.060285","vacant":"TRUE"}},{"type":"Feature","geometry":{"type":"Point","coordinates":[-73.83164977,40.85784524]},"properties":{"address":"BRONX PARK EAST","borough":"Bronx","bbl":"2044110299","zipcode":"10469","agency":"Department of Citywide Administrative Services","agencyshort":"DCAS","sqft":"2646","acres":"0.060744","vacant":"TRUE"}},{"type":"Feature","geometry":{"type":"Point","coordinates":[-73.89420935,40.67434447]},"properties":{"address":"225 VERMONT STREET","borough":"Brooklyn","bbl":"3037060013","zipcode":"11207","agency":"Housing Preservation and Development","agencyshort":"HPD","sqft":"2650","acres":"0.060836","vacant":"TRUE"}},{"type":"Feature","geometry":{"type":"Point","coordinates":[-73.89422727,40.67441036]},"properties":{"address":"223 VERMONT STREET","borough":"Brooklyn","bbl":"3037060014","zipcode":"11207","agency":"Housing Preservation and Development","agencyshort":"HPD","sqft":"2650","acres":"0.060836","vacant":"TRUE"}},{"type":"Feature","geometry":{"type":"Point","coordinates":[-73.91752178,40.66684559]},"properties":{"address":"87 LEGION STREET","borough":"Brooklyn","bbl":"3035140006","zipcode":"11212","agency":"Housing Preservation and Development","agencyshort":"HPD","sqft":"2650","acres":"0.060836","vacant":"TRUE"}},{"type":"Feature","geometry":{"type":"Point","coordinates":[-73.89419143,40.67427583]},"properties":{"address":"227 VERMONT STREET","borough":"Brooklyn","bbl":"3037060012","zipcode":"11207","agency":"Housing Preservation and Development","agencyshort":"HPD","sqft":"2650","acres":"0.060836","vacant":"TRUE"}},{"type":"Feature","geometry":{"type":"Point","coordinates":[-73.77697467,40.59406419]},"properties":{"address":"BEACH 46 STREET","borough":"Queens","bbl":"4158370009","zipcode":"11691","agency":"Housing Preservation and Development","agencyshort":"HPD","sqft":"2663","acres":"0.061134","vacant":"TRUE"}},{"type":"Feature","geometry":{"type":"Point","coordinates":[-73.77698367,40.59414073]},"properties":{"address":"BEACH 46 STREET","borough":"Queens","bbl":"4158370010","zipcode":"11691","agency":"Housing Preservation and Development","agencyshort":"HPD","sqft":"2663","acres":"0.061134","vacant":"TRUE"}},{"type":"Feature","geometry":{"type":"Point","coordinates":[-73.77699161,40.59421831]},"properties":{"address":"316 BEACH 46 STREET","borough":"Queens","bbl":"4158370012","zipcode":"11691","agency":"Housing Preservation and Development","agencyshort":"HPD","sqft":"2663","acres":"0.061134","vacant":"TRUE"}},{"type":"Feature","geometry":{"type":"Point","coordinates":[-73.90750791,40.69292706]},"properties":{"address":"797 KNICKERBOCKER AVENUE","borough":"Brooklyn","bbl":"3034130004","zipcode":"11207","agency":"Housing Preservation and Development","agencyshort":"HPD","sqft":"2667","acres":"0.061226","vacant":"TRUE"}},{"type":"Feature","geometry":{"type":"Point","coordinates":[-73.90735297,40.69283911]},"properties":{"address":"        KNICKERBOCKER AVENUE","borough":"Brooklyn","bbl":"3034130002","zipcode":"11207","agency":"Housing Preservation and Development","agencyshort":"HPD","sqft":"2667","acres":"0.061226","vacant":"TRUE"}},{"type":"Feature","geometry":{"type":"Point","coordinates":[-73.90743224,40.69288309]},"properties":{"address":"799 KNICKERBOCKER AVENUE","borough":"Brooklyn","bbl":"3034130003","zipcode":"11207","agency":"Housing Preservation and Development","agencyshort":"HPD","sqft":"2667","acres":"0.061226","vacant":"TRUE"}},{"type":"Feature","geometry":{"type":"Point","coordinates":[-73.77035059,40.59771584]},"properties":{"address":"457 BEACH 37 STREET","borough":"Queens","bbl":"4159540053","zipcode":"11691","agency":"Housing Preservation and Development","agencyshort":"HPD","sqft":"2667","acres":"0.061226","vacant":"TRUE"}},{"type":"Feature","geometry":{"type":"Point","coordinates":[-74.16057308,40.63394842]},"properties":{"address":"0 HARBOR ROAD","borough":"Staten Island","bbl":"5012360173","zipcode":"10303","agency":"Department of Citywide Administrative Services","agencyshort":"DCAS","sqft":"2672","acres":"0.061341","vacant":"TRUE"}},{"type":"Feature","geometry":{"type":"Point","coordinates":[-74.08352502,40.60257979]},"properties":{"address":"74 SHERIDAN AVENUE","borough":"Staten Island","bbl":"5031650015","zipcode":"10305","agency":"Department of Citywide Administrative Services","agencyshort":"DCAS","sqft":"2675","acres":"0.06141","vacant":"TRUE"}},{"type":"Feature","geometry":{"type":"Point","coordinates":[-73.77240529,40.59391288]},"properties":{"address":"4009 ROCKAWAY BEACH BOULEVARD","borough":"Queens","bbl":"4158490018","zipcode":"11691","agency":"Housing Preservation and Development","agencyshort":"HPD","sqft":"2681","acres":"0.061547","vacant":"TRUE"}},{"type":"Feature","geometry":{"type":"Point","coordinates":[-73.89378048,40.83271051]},"properties":{"address":"1388 STEBBINS AVENUE","borough":"Bronx","bbl":"2029650006","zipcode":"10459","agency":"Housing Preservation and Development","agencyshort":"HPD","sqft":"2683","acres":"0.061593","vacant":"TRUE"}},{"type":"Feature","geometry":{"type":"Point","coordinates":[-73.88886134,40.65805739]},"properties":{"address":"885 NEW JERSEY AVENUE","borough":"Brooklyn","bbl":"3043480048","zipcode":"11207","agency":"Housing Preservation and Development","agencyshort":"HPD","sqft":"2700","acres":"0.061983","vacant":"TRUE"}},{"type":"Feature","geometry":{"type":"Point","coordinates":[-73.81045918,40.78498261]},"properties":{"address":"150 PLACE","borough":"Queens","bbl":"4046990032","zipcode":"11357","agency":"Department of Citywide Administrative Services","agencyshort":"DCAS","sqft":"2705","acres":"0.062098","vacant":"TRUE"}},{"type":"Feature","geometry":{"type":"Point","coordinates":[-73.89378926,40.83277826]},"properties":{"address":"1392 STEBBINS AVENUE","borough":"Bronx","bbl":"2029650007","zipcode":"10459","agency":"Housing Preservation and Development","agencyshort":"HPD","sqft":"2713","acres":"0.062282","vacant":"TRUE"}},{"type":"Feature","geometry":{"type":"Point","coordinates":[-73.9197949,40.67401656]},"properties":{"address":"402 HOWARD AVENUE","borough":"Brooklyn","bbl":"3014510042","zipcode":"11233","agency":"Housing Preservation and Development","agencyshort":"HPD","sqft":"2733","acres":"0.062741","vacant":"TRUE"}},{"type":"Feature","geometry":{"type":"Point","coordinates":[-73.95881654,40.73142745]},"properties":{"address":"        JAVA STREET","borough":"Brooklyn","bbl":"3025390029","zipcode":"11222","agency":"Housing Preservation and Development","agencyshort":"HPD","sqft":"2758","acres":"0.063315","vacant":"TRUE"}},{"type":"Feature","geometry":{"type":"Point","coordinates":[-73.84704643,40.79320719]},"properties":{"address":"5 AVENUE","borough":"Queens","bbl":"4039160024","zipcode":"11356","agency":"Department of Citywide Administrative Services","agencyshort":"DCAS","sqft":"2770","acres":"0.06359","vacant":"TRUE"}},{"type":"Feature","geometry":{"type":"Point","coordinates":[-73.91948525,40.67071712]},"properties":{"address":"497 HOWARD AVENUE","borough":"Brooklyn","bbl":"3014710011","zipcode":"11233","agency":"NYC Housing Authority","agencyshort":"NYCHA","sqft":"2775","acres":"0.063705","vacant":"TRUE"}},{"type":"Feature","geometry":{"type":"Point","coordinates":[-73.77216089,40.59376465]},"properties":{"address":"BEACH 40 STREET","borough":"Queens","bbl":"4158490027","zipcode":"11691","agency":"Housing Preservation and Development","agencyshort":"HPD","sqft":"2807","acres":"0.06444","vacant":"TRUE"}},{"type":"Feature","geometry":{"type":"Point","coordinates":[-73.82959171,40.6576601]},"properties":{"address":"HAWTREE CREEK R","borough":"Queens","bbl":"4142340526","zipcode":"11414","agency":"Department of Citywide Administrative Services","agencyshort":"DCAS","sqft":"2808","acres":"0.064463","vacant":"TRUE"}},{"type":"Feature","geometry":{"type":"Point","coordinates":[-73.89184874,40.66279499]},"properties":{"address":"        VERMONT STREET","borough":"Brooklyn","bbl":"3038410032","zipcode":"11207","agency":"Housing Preservation and Development","agencyshort":"HPD","sqft":"2808","acres":"0.064463","vacant":"TRUE"}},{"type":"Feature","geometry":{"type":"Point","coordinates":[-73.9049841,40.83937895]},"properties":{"address":"404 CLAREMONT PKWAY","borough":"Bronx","bbl":"2028960096","zipcode":"10457","agency":"Housing Preservation and Development","agencyshort":"HPD","sqft":"2811","acres":"0.064532","vacant":"TRUE"}},{"type":"Feature","geometry":{"type":"Point","coordinates":[-74.09487872,40.58181383]},"properties":{"address":"FILBERT AVENUE","borough":"Staten Island","bbl":"5036580056","zipcode":"10305","agency":"Department of Citywide Administrative Services","agencyshort":"DCAS","sqft":"2812","acres":"0.064555","vacant":"TRUE"}},{"type":"Feature","geometry":{"type":"Point","coordinates":[-73.94188619,40.82347313]},"properties":{"address":"2735 8 AVENUE","borough":"Manhattan","bbl":"1020450013","zipcode":"10039","agency":"Housing Preservation and Development","agencyshort":"HPD","sqft":"2813","acres":"0.064578","vacant":"TRUE"}},{"type":"Feature","geometry":{"type":"Point","coordinates":[-73.7778581,40.59785137]},"properties":{"address":"481 BEACH 46 STREET","borough":"Queens","bbl":"4159690040","zipcode":"11691","agency":"Housing Preservation and Development","agencyshort":"HPD","sqft":"2816","acres":"0.064646","vacant":"TRUE"}},{"type":"Feature","geometry":{"type":"Point","coordinates":[-73.77615275,40.59727437]},"properties":{"address":"BEACH 44 STREET","borough":"Queens","bbl":"4159660072","zipcode":"11691","agency":"Housing Preservation and Development","agencyshort":"HPD","sqft":"2824","acres":"0.06483","vacant":"TRUE"}},{"type":"Feature","geometry":{"type":"Point","coordinates":[-73.9461218,40.7017486]},"properties":{"address":"        THROOP AVENUE","borough":"Brooklyn","bbl":"3022690031","zipcode":"11206","agency":"Department of Citywide Administrative Services","agencyshort":"DCAS","sqft":"2831","acres":"0.064991","vacant":"TRUE"}},{"type":"Feature","geometry":{"type":"Point","coordinates":[-73.93898056,40.80449188]},"properties":{"address":"1807-09 PARK AVENUE","borough":"Manhattan","bbl":"1017730004","zipcode":"10035","agency":"Housing Preservation and Development","agencyshort":"HPD","sqft":"2843","acres":"0.065266","vacant":"TRUE"}},{"type":"Feature","geometry":{"type":"Point","coordinates":[-73.93892631,40.80456871]},"properties":{"address":"1811-13 PARK AVENUE","borough":"Manhattan","bbl":"1017730072","zipcode":"10035","agency":"Housing Preservation and Development","agencyshort":"HPD","sqft":"2843","acres":"0.065266","vacant":"TRUE"}},{"type":"Feature","geometry":{"type":"Point","coordinates":[-73.89484405,40.66506495]},"properties":{"address":"483 SHEFFIELD AVENUE","borough":"Brooklyn","bbl":"3038050006","zipcode":"11207","agency":"Housing Preservation and Development","agencyshort":"HPD","sqft":"2850","acres":"0.065427","vacant":"TRUE"}},{"type":"Feature","geometry":{"type":"Point","coordinates":[-73.79922018,40.59152553]},"properties":{"address":"BEACH 70 STREET","borough":"Queens","bbl":"4160830023","zipcode":"11692","agency":"Housing Preservation and Development","agencyshort":"HPD","sqft":"2850","acres":"0.065427","vacant":"TRUE"}},{"type":"Feature","geometry":{"type":"Point","coordinates":[-73.98703548,40.60666565]},"properties":{"address":"1631 STILLWELL AVENUE","borough":"Brooklyn","bbl":"3066180057","zipcode":"11223","agency":"School Construction Authority","agencyshort":"SCA","sqft":"2850","acres":"0.065427","vacant":"TRUE"}},{"type":"Feature","geometry":{"type":"Point","coordinates":[-73.77775783,40.59660229]},"properties":{"address":"431 BEACH 46 STREET","borough":"Queens","bbl":"4159690060","zipcode":"11691","agency":"Housing Preservation and Development","agencyshort":"HPD","sqft":"2852","acres":"0.065473","vacant":"TRUE"}},{"type":"Feature","geometry":{"type":"Point","coordinates":[-73.92061028,40.72607134]},"properties":{"address":"0 56 ROAD","borough":"Queens","bbl":"4025520142","zipcode":"11378","agency":"Department of Citywide Administrative Services","agencyshort":"DCAS","sqft":"2857","acres":"0.065588","vacant":"TRUE"}},{"type":"Feature","geometry":{"type":"Point","coordinates":[-73.77597502,40.59993377]},"properties":{"address":"544 BEACH 44 STREET","borough":"Queens","bbl":"4159620018","zipcode":"11691","agency":"Housing Preservation and Development","agencyshort":"HPD","sqft":"2868","acres":"0.06584","vacant":"TRUE"}},{"type":"Feature","geometry":{"type":"Point","coordinates":[-73.77595397,40.59976904]},"properties":{"address":"542 BEACH 44 STREET","borough":"Queens","bbl":"4159620015","zipcode":"11691","agency":"Housing Preservation and Development","agencyshort":"HPD","sqft":"2868","acres":"0.06584","vacant":"TRUE"}},{"type":"Feature","geometry":{"type":"Point","coordinates":[-73.7759645,40.5998514]},"properties":{"address":"544 BEACH 44 STREET","borough":"Queens","bbl":"4159620017","zipcode":"11691","agency":"Housing Preservation and Development","agencyshort":"HPD","sqft":"2868","acres":"0.06584","vacant":"TRUE"}},{"type":"Feature","geometry":{"type":"Point","coordinates":[-73.77214872,40.59368669]},"properties":{"address":"BEACH 40 STREET","borough":"Queens","bbl":"4158490028","zipcode":"11691","agency":"Housing Preservation and Development","agencyshort":"HPD","sqft":"2871","acres":"0.065909","vacant":"TRUE"}},{"type":"Feature","geometry":{"type":"Point","coordinates":[-73.90975948,40.81712863]},"properties":{"address":"00667 CAULDWELL AVENUE","borough":"Bronx","bbl":"2026240073","zipcode":"10455","agency":"Housing Preservation and Development","agencyshort":"HPD","sqft":"2875","acres":"0.066001","vacant":"TRUE"}},{"type":"Feature","geometry":{"type":"Point","coordinates":[-73.79071765,40.69532109]},"properties":{"address":"10846 NEW YORK BOULEVARD","borough":"Queens","bbl":"4101500057","zipcode":"11433","agency":"Housing Preservation and Development","agencyshort":"HPD","sqft":"2875","acres":"0.066001","vacant":"TRUE"}},{"type":"Feature","geometry":{"type":"Point","coordinates":[-73.90594271,40.73757224]},"properties":{"address":"48 AVENUE","borough":"Queens","bbl":"4023290040","zipcode":"11377","agency":"Department of Citywide Administrative Services","agencyshort":"DCAS","sqft":"2880","acres":"0.066116","vacant":"TRUE"}},{"type":"Feature","geometry":{"type":"Point","coordinates":[-73.77541493,40.59865923]},"properties":{"address":"BEACH 43 STREET","borough":"Queens","bbl":"4159650067","zipcode":"11691","agency":"Housing Preservation and Development","agencyshort":"HPD","sqft":"2885","acres":"0.06623","vacant":"TRUE"}},{"type":"Feature","geometry":{"type":"Point","coordinates":[-73.72733745,40.65870799]},"properties":{"address":"FRANKTON STREET","borough":"Queens","bbl":"4136020015","zipcode":"11422","agency":"Department of Citywide Administrative Services","agencyshort":"DCAS","sqft":"2900","acres":"0.066575","vacant":"TRUE"}},{"type":"Feature","geometry":{"type":"Point","coordinates":[-73.76362937,40.65493989]},"properties":{"address":"SPRINGFIELD BLVD","borough":"Queens","bbl":"4134330035","zipcode":"11434","agency":"Department of Citywide Administrative Services","agencyshort":"DCAS","sqft":"2900","acres":"0.066575","vacant":"TRUE"}},{"type":"Feature","geometry":{"type":"Point","coordinates":[-73.77614419,40.59719]},"properties":{"address":"BEACH 44 STREET","borough":"Queens","bbl":"4159660074","zipcode":"11691","agency":"Housing Preservation and Development","agencyshort":"HPD","sqft":"2923","acres":"0.067103","vacant":"TRUE"}},{"type":"Feature","geometry":{"type":"Point","coordinates":[-73.87404987,40.874281]},"properties":{"address":"WEBSTER AVE","borough":"Bronx","bbl":"2033540058","zipcode":"10467","agency":"Department of Citywide Administrative Services","agencyshort":"DCAS","sqft":"2945","acres":"0.067608","vacant":"TRUE"}},{"type":"Feature","geometry":{"type":"Point","coordinates":[-73.82936974,40.65761723]},"properties":{"address":"HAWTREE CREEK R","borough":"Queens","bbl":"4142340523","zipcode":"11414","agency":"Department of Citywide Administrative Services","agencyshort":"DCAS","sqft":"2945","acres":"0.067608","vacant":"TRUE"}},{"type":"Feature","geometry":{"type":"Point","coordinates":[-73.91182051,40.82400301]},"properties":{"address":"899 ELTON AVENUE","borough":"Bronx","bbl":"2023830030","zipcode":"10451","agency":"Housing Preservation and Development","agencyshort":"HPD","sqft":"2950","acres":"0.067723","vacant":"TRUE"}},{"type":"Feature","geometry":{"type":"Point","coordinates":[-74.08527686,40.57770415]},"properties":{"address":"SEAVER AVE","borough":"Staten Island","bbl":"5037570026","zipcode":"","agency":"Department of Citywide Administrative Services","agencyshort":"DCAS","sqft":"2960","acres":"0.067952","vacant":"TRUE"}},{"type":"Feature","geometry":{"type":"Point","coordinates":[-73.77090458,40.59402248]},"properties":{"address":"214 BEACH 39 STREET","borough":"Queens","bbl":"4158470079","zipcode":"11691","agency":"Housing Preservation and Development","agencyshort":"HPD","sqft":"2974","acres":"0.068274","vacant":"TRUE"}},{"type":"Feature","geometry":{"type":"Point","coordinates":[-73.72877584,40.65816969]},"properties":{"address":"258-18 FRANCIS LEWIS BOULEVARD","borough":"Queens","bbl":"4136010015","zipcode":"11422","agency":"Department of Citywide Administrative Services","agencyshort":"DCAS","sqft":"2980","acres":"0.068411","vacant":"TRUE"}},{"type":"Feature","geometry":{"type":"Point","coordinates":[-73.93454557,40.80379504]},"properties":{"address":"200-01 EAST 126 STREET","borough":"Manhattan","bbl":"1017900040","zipcode":"10035","agency":"Housing Preservation and Development","agencyshort":"HPD","sqft":"2998","acres":"0.068825","vacant":"TRUE"}},{"type":"Feature","geometry":{"type":"Point","coordinates":[-73.94330338,40.81401005]},"properties":{"address":"130 W134 ST","borough":"Manhattan","bbl":"1019180053","zipcode":"10030","agency":"Housing Preservation and Development","agencyshort":"HPD","sqft":"2998","acres":"0.068825","vacant":"TRUE"}},{"type":"Feature","geometry":{"type":"Point","coordinates":[-73.83205443,40.65501539]},"properties":{"address":"HAWTREE BASIN","borough":"Queens","bbl":"4142310766","zipcode":"","agency":"Department of Citywide Administrative Services","agencyshort":"DCAS","sqft":"3000","acres":"0.068871","vacant":"TRUE"}},{"type":"Feature","geometry":{"type":"Point","coordinates":[-74.14397215,40.53750499]},"properties":{"address":"GOODALL STREET","borough":"Staten Island","bbl":"5053080008","zipcode":"10308","agency":"Department of Citywide Administrative Services","agencyshort":"DCAS","sqft":"3000","acres":"0.068871","vacant":"TRUE"}},{"type":"Feature","geometry":{"type":"Point","coordinates":[-73.77482762,40.59847129]},"properties":{"address":"498 BEACH 43 STREET","borough":"Queens","bbl":"4159600049","zipcode":"11691","agency":"Department of Citywide Administrative Services","agencyshort":"DCAS","sqft":"3000","acres":"0.068871","vacant":"TRUE"}},{"type":"Feature","geometry":{"type":"Point","coordinates":[-73.90645807,40.67269998]},"properties":{"address":"108 LIBERTY AVENUE","borough":"Brooklyn","bbl":"3036930016","zipcode":"11212","agency":"Housing Preservation and Development","agencyshort":"HPD","sqft":"3000","acres":"0.068871","vacant":"TRUE"}},{"type":"Feature","geometry":{"type":"Point","coordinates":[-73.90038579,40.66404883]},"properties":{"address":"        LIVONIA AVENUE","borough":"Brooklyn","bbl":"3037990051","zipcode":"11207","agency":"Housing Preservation and Development","agencyshort":"HPD","sqft":"3000","acres":"0.068871","vacant":"TRUE"}},{"type":"Feature","geometry":{"type":"Point","coordinates":[-73.77481692,40.59838708]},"properties":{"address":"BEACH 43 STREET","borough":"Queens","bbl":"4159600048","zipcode":"11691","agency":"Housing Preservation and Development","agencyshort":"HPD","sqft":"3000","acres":"0.068871","vacant":"TRUE"}},{"type":"Feature","geometry":{"type":"Point","coordinates":[-73.77513556,40.60112612]},"properties":{"address":"584 BEACH 43 STREET","borough":"Queens","bbl":"4159610097","zipcode":"11691","agency":"Housing Preservation and Development","agencyshort":"HPD","sqft":"3000","acres":"0.068871","vacant":"TRUE"}},{"type":"Feature","geometry":{"type":"Point","coordinates":[-73.77514384,40.60120775]},"properties":{"address":"BEACH 43 STREET","borough":"Queens","bbl":"4159610098","zipcode":"11691","agency":"Housing Preservation and Development","agencyshort":"HPD","sqft":"3000","acres":"0.068871","vacant":"TRUE"}},{"type":"Feature","geometry":{"type":"Point","coordinates":[-74.13481322,40.61445731]},"properties":{"address":"SEWARD PL","borough":"Staten Island","bbl":"5004580013","zipcode":"10314","agency":"Department of Citywide Administrative Services","agencyshort":"DCAS","sqft":"3003","acres":"0.068939","vacant":"TRUE"}},{"type":"Feature","geometry":{"type":"Point","coordinates":[-73.79786397,40.67526526]},"properties":{"address":"142 PLACE","borough":"Queens","bbl":"4120380013","zipcode":"11436","agency":"Department of Citywide Administrative Services","agencyshort":"DCAS","sqft":"3020","acres":"0.06933","vacant":"TRUE"}},{"type":"Feature","geometry":{"type":"Point","coordinates":[-73.91244921,40.823998]},"properties":{"address":"433-435 EAST 161 STREET","borough":"Bronx","bbl":"2023830035","zipcode":"10451","agency":"Housing Preservation and Development","agencyshort":"HPD","sqft":"3027","acres":"0.06949","vacant":"TRUE"}},{"type":"Feature","geometry":{"type":"Point","coordinates":[-73.94942537,40.80161223]},"properties":{"address":"68 WEST 116 STREET","borough":"Manhattan","bbl":"1015990069","zipcode":"10026","agency":"Housing Preservation and Development","agencyshort":"HPD","sqft":"3028","acres":"0.069513","vacant":"TRUE"}},{"type":"Feature","geometry":{"type":"Point","coordinates":[-73.82967074,40.65725725]},"properties":{"address":"HAWTREE CREEK R","borough":"Queens","bbl":"4142340511","zipcode":"11414","agency":"Department of Citywide Administrative Services","agencyshort":"DCAS","sqft":"3034","acres":"0.069651","vacant":"TRUE"}},{"type":"Feature","geometry":{"type":"Point","coordinates":[-73.89389896,40.83319369]},"properties":{"address":"1400 STEBBINS AVENUE","borough":"Bronx","bbl":"2029650013","zipcode":"10459","agency":"Housing Preservation and Development","agencyshort":"HPD","sqft":"3037","acres":"0.06972","vacant":"TRUE"}},{"type":"Feature","geometry":{"type":"Point","coordinates":[-73.92148881,40.67747615]},"properties":{"address":"335 RALPH AVENUE","borough":"Brooklyn","bbl":"3015560003","zipcode":"11233","agency":"Housing Preservation and Development","agencyshort":"HPD","sqft":"3060","acres":"0.070248","vacant":"TRUE"}},{"type":"Feature","geometry":{"type":"Point","coordinates":[-73.76857922,40.59701637]},"properties":{"address":"BEACH 36 STREET","borough":"Queens","bbl":"4159520013","zipcode":"11691","agency":"Housing Preservation and Development","agencyshort":"HPD","sqft":"3067","acres":"0.070409","vacant":"TRUE"}},{"type":"Feature","geometry":{"type":"Point","coordinates":[-73.91261173,40.82404752]},"properties":{"address":"429-31 EAST 161 STREET","borough":"Bronx","bbl":"2023830037","zipcode":"10451","agency":"Housing Preservation and Development","agencyshort":"HPD","sqft":"3075","acres":"0.070592","vacant":"TRUE"}},{"type":"Feature","geometry":{"type":"Point","coordinates":[-73.89153571,40.82870388]},"properties":{"address":"959 HOME STREET","borough":"Bronx","bbl":"2029790001","zipcode":"10459","agency":"Housing Preservation and Development","agencyshort":"HPD","sqft":"3111","acres":"0.071419","vacant":"TRUE"}},{"type":"Feature","geometry":{"type":"Point","coordinates":[-73.91278148,40.8240998]},"properties":{"address":"427-25 EAST 161 STREET","borough":"Bronx","bbl":"2023830039","zipcode":"10451","agency":"Housing Preservation and Development","agencyshort":"HPD","sqft":"3122","acres":"0.071671","vacant":"TRUE"}},{"type":"Feature","geometry":{"type":"Point","coordinates":[-73.77249071,40.59353582]},"properties":{"address":"BEACH 41 STREET","borough":"Queens","bbl":"4158490006","zipcode":"11691","agency":"Housing Preservation and Development","agencyshort":"HPD","sqft":"3131","acres":"0.071878","vacant":"TRUE"}},{"type":"Feature","geometry":{"type":"Point","coordinates":[-74.06972561,40.59489688]},"properties":{"address":"SAND LANE","borough":"Staten Island","bbl":"5032840061","zipcode":"10305","agency":"Department of Citywide Administrative Services","agencyshort":"DCAS","sqft":"3137","acres":"0.072016","vacant":"TRUE"}},{"type":"Feature","geometry":{"type":"Point","coordinates":[-73.85549314,40.89096211]},"properties":{"address":"0 EAST 231 STREET","borough":"Bronx","bbl":"2048440082","zipcode":"10466","agency":"Department of Citywide Administrative Services","agencyshort":"DCAS","sqft":"3144","acres":"0.072176","vacant":"TRUE"}},{"type":"Feature","geometry":{"type":"Point","coordinates":[-73.90464257,40.67171586]},"properties":{"address":"164 PITKIN AVENUE","borough":"Brooklyn","bbl":"3037090017","zipcode":"11212","agency":"NYC Housing Authority","agencyshort":"NYCHA","sqft":"3153","acres":"0.072383","vacant":"TRUE"}},{"type":"Feature","geometry":{"type":"Point","coordinates":[-74.09077592,40.57694921]},"properties":{"address":"JEFFERSON AVENU","borough":"Staten Island","bbl":"5037650004","zipcode":"","agency":"Department of Citywide Administrative Services","agencyshort":"DCAS","sqft":"3160","acres":"0.072544","vacant":"TRUE"}},{"type":"Feature","geometry":{"type":"Point","coordinates":[-73.82936848,40.6503643]},"properties":{"address":"LOCKWOOD COURT","borough":"Queens","bbl":"4142521795","zipcode":"11414","agency":"Department of Citywide Administrative Services","agencyshort":"DCAS","sqft":"3180","acres":"0.073003","vacant":"TRUE"}},{"type":"Feature","geometry":{"type":"Point","coordinates":[-73.77490452,40.59915764]},"properties":{"address":"518 BEACH 43 STREET","borough":"Queens","bbl":"4159610061","zipcode":"11691","agency":"Housing Preservation and Development","agencyshort":"HPD","sqft":"3193","acres":"0.073301","vacant":"TRUE"}},{"type":"Feature","geometry":{"type":"Point","coordinates":[-73.92460858,40.67319089]},"properties":{"address":"1559 PROSPECT PLACE","borough":"Brooklyn","bbl":"3013630092","zipcode":"11233","agency":"Housing Preservation and Development","agencyshort":"HPD","sqft":"3194","acres":"0.073324","vacant":"TRUE"}},{"type":"Feature","geometry":{"type":"Point","coordinates":[-73.92451845,40.67318809]},"properties":{"address":"1561 PROSPECT PLACE","borough":"Brooklyn","bbl":"3013630091","zipcode":"11233","agency":"Housing Preservation and Development","agencyshort":"HPD","sqft":"3194","acres":"0.073324","vacant":"TRUE"}},{"type":"Feature","geometry":{"type":"Point","coordinates":[-73.82772282,40.65194994]},"properties":{"address":"104 STREET","borough":"Queens","bbl":"4142531514","zipcode":"11414","agency":"Department of Citywide Administrative Services","agencyshort":"DCAS","sqft":"3200","acres":"0.073462","vacant":"TRUE"}},{"type":"Feature","geometry":{"type":"Point","coordinates":[-73.8273739,40.65060395]},"properties":{"address":"104 STREET","borough":"Queens","bbl":"4142551767","zipcode":"11414","agency":"Department of Citywide Administrative Services","agencyshort":"DCAS","sqft":"3200","acres":"0.073462","vacant":"TRUE"}},{"type":"Feature","geometry":{"type":"Point","coordinates":[-73.82835785,40.65353277]},"properties":{"address":"        DAVENPORT COURT","borough":"Queens","bbl":"4142461189","zipcode":"11414","agency":"Department of Citywide Administrative Services","agencyshort":"DCAS","sqft":"3200","acres":"0.073462","vacant":"TRUE"}},{"type":"Feature","geometry":{"type":"Point","coordinates":[-73.9359896,40.69946525]},"properties":{"address":"544 BUSHWICK AVENUE","borough":"Brooklyn","bbl":"3031370001","zipcode":"11206","agency":"Department of Parks & Recreation","agencyshort":"Parks","sqft":"3200","acres":"0.073462","vacant":"TRUE"}},{"type":"Feature","geometry":{"type":"Point","coordinates":[-73.94650725,40.70043444]},"properties":{"address":"        WHIPPLE STREET","borough":"Brooklyn","bbl":"3022720049","zipcode":"11206","agency":"Housing Preservation and Development","agencyshort":"HPD","sqft":"3200","acres":"0.073462","vacant":"TRUE"}},{"type":"Feature","geometry":{"type":"Point","coordinates":[-73.77213672,40.59360487]},"properties":{"address":"BEACH 40 STREET","borough":"Queens","bbl":"4158490029","zipcode":"11691","agency":"Housing Preservation and Development","agencyshort":"HPD","sqft":"3205","acres":"0.073577","vacant":"TRUE"}},{"type":"Feature","geometry":{"type":"Point","coordinates":[-73.91980221,40.67393422]},"properties":{"address":"404 HOWARD AVENUE","borough":"Brooklyn","bbl":"3014510043","zipcode":"11233","agency":"Housing Preservation and Development","agencyshort":"HPD","sqft":"3217","acres":"0.073852","vacant":"TRUE"}},{"type":"Feature","geometry":{"type":"Point","coordinates":[-74.16158265,40.62589324]},"properties":{"address":"AMITY PL","borough":"Staten Island","bbl":"5016850127","zipcode":"10303","agency":"Department of Citywide Administrative Services","agencyshort":"DCAS","sqft":"3220","acres":"0.073921","vacant":"TRUE"}},{"type":"Feature","geometry":{"type":"Point","coordinates":[-73.77515697,40.59639803]},"properties":{"address":"BEACH 43 STREET","borough":"Queens","bbl":"4159650108","zipcode":"11691","agency":"Housing Preservation and Development","agencyshort":"HPD","sqft":"3237","acres":"0.074311","vacant":"TRUE"}},{"type":"Feature","geometry":{"type":"Point","coordinates":[-73.77542289,40.5987262]},"properties":{"address":"503 DELMORE COURT","borough":"Queens","bbl":"4159620201","zipcode":"11691","agency":"Housing Preservation and Development","agencyshort":"HPD","sqft":"3240","acres":"0.07438","vacant":"TRUE"}},{"type":"Feature","geometry":{"type":"Point","coordinates":[-74.08316274,40.5776458]},"properties":{"address":"CANOE PLACE","borough":"Staten Island","bbl":"5038230003","zipcode":"","agency":"Department of Citywide Administrative Services","agencyshort":"DCAS","sqft":"3270","acres":"0.075069","vacant":"TRUE"}},{"type":"Feature","geometry":{"type":"Point","coordinates":[-73.9223757,40.84252471]},"properties":{"address":"E L GRANT HIGHWAY","borough":"Bronx","bbl":"2028740003","zipcode":"10452","agency":"Housing Preservation and Development","agencyshort":"HPD","sqft":"3280","acres":"0.075298","vacant":"TRUE"}},{"type":"Feature","geometry":{"type":"Point","coordinates":[-73.945839,40.701638]},"properties":{"address":"69 BARTLETT STREET","borough":"Brooklyn","bbl":"3022690033","zipcode":"11206","agency":"Housing Preservation and Development","agencyshort":"HPD","sqft":"3283","acres":"0.075367","vacant":"TRUE"}},{"type":"Feature","geometry":{"type":"Point","coordinates":[-73.76313645,40.6557968]},"properties":{"address":"150 ROAD","borough":"Queens","bbl":"4134330020","zipcode":"11434","agency":"Department of Citywide Administrative Services","agencyshort":"DCAS","sqft":"3290","acres":"0.075528","vacant":"TRUE"}},{"type":"Feature","geometry":{"type":"Point","coordinates":[-73.86034984,40.66538753]},"properties":{"address":"        DREW STREET","borough":"Brooklyn","bbl":"3045360025","zipcode":"0","agency":"Housing Preservation and Development","agencyshort":"HPD","sqft":"3290","acres":"0.075528","vacant":"TRUE"}},{"type":"Feature","geometry":{"type":"Point","coordinates":[-73.83919817,40.88277112]},"properties":{"address":"BAYCHESTER AV","borough":"Bronx","bbl":"2049160046","zipcode":"10466","agency":"Department of Citywide Administrative Services","agencyshort":"DCAS","sqft":"3300","acres":"0.075758","vacant":"TRUE"}},{"type":"Feature","geometry":{"type":"Point","coordinates":[-74.08457461,40.57704271]},"properties":{"address":"CANOE PL","borough":"Staten Island","bbl":"5038260004","zipcode":"10305","agency":"Department of Citywide Administrative Services","agencyshort":"DCAS","sqft":"3315","acres":"0.076102","vacant":"TRUE"}},{"type":"Feature","geometry":{"type":"Point","coordinates":[-74.15828108,40.53941302]},"properties":{"address":"WINCHESTER AVE","borough":"Staten Island","bbl":"5052680130","zipcode":"10312","agency":"Department of Citywide Administrative Services","agencyshort":"DCAS","sqft":"3320","acres":"0.076217","vacant":"TRUE"}},{"type":"Feature","geometry":{"type":"Point","coordinates":[-74.23875609,40.52726097]},"properties":{"address":"WANIER AV","borough":"Staten Island","bbl":"5075280096","zipcode":"10309","agency":"Department of Citywide Administrative Services","agencyshort":"DCAS","sqft":"3360","acres":"0.077135","vacant":"TRUE"}},{"type":"Feature","geometry":{"type":"Point","coordinates":[-74.13536974,40.56713432]},"properties":{"address":"WOLVERINE ST","borough":"Staten Island","bbl":"5043990296","zipcode":"10306","agency":"Department of Citywide Administrative Services","agencyshort":"DCAS","sqft":"3437","acres":"0.078903","vacant":"TRUE"}},{"type":"Feature","geometry":{"type":"Point","coordinates":[-73.76090547,40.65918716]},"properties":{"address":"220-04 147 AVENUE","borough":"Queens","bbl":"4134340110","zipcode":"11413","agency":"Department of Citywide Administrative Services","agencyshort":"DCAS","sqft":"3440","acres":"0.078972","vacant":"TRUE"}},{"type":"Feature","geometry":{"type":"Point","coordinates":[-73.74758184,40.65359091]},"properties":{"address":"0  148 DRIVE","borough":"Queens","bbl":"4137350005","zipcode":"11422","agency":"Department of Citywide Administrative Services","agencyshort":"DCAS","sqft":"3440","acres":"0.078972","vacant":"TRUE"}},{"type":"Feature","geometry":{"type":"Point","coordinates":[-74.08983586,40.57595419]},"properties":{"address":"0 JEFFERSON AVENUE","borough":"Staten Island","bbl":"5037920031","zipcode":"10306","agency":"Department of Citywide Administrative Services","agencyshort":"DCAS","sqft":"3440","acres":"0.078972","vacant":"TRUE"}},{"type":"Feature","geometry":{"type":"Point","coordinates":[-73.83417238,40.77650768]},"properties":{"address":"0  134 STREET","borough":"Queens","bbl":"4042780036","zipcode":"11354","agency":"Department of Small Business Services","agencyshort":"SBS","sqft":"3450","acres":"0.079201","vacant":"TRUE"}},{"type":"Feature","geometry":{"type":"Point","coordinates":[-73.85815693,40.66668616]},"properties":{"address":"        STANLEY AVENUE","borough":"Brooklyn","bbl":"3045390001","zipcode":"11208","agency":"Housing Preservation and Development","agencyshort":"HPD","sqft":"3482","acres":"0.079936","vacant":"TRUE"}},{"type":"Feature","geometry":{"type":"Point","coordinates":[-73.77657587,40.59793946]},"properties":{"address":"480 BEACH 45 STREET","borough":"Queens","bbl":"4159660023","zipcode":"11691","agency":"Housing Preservation and Development","agencyshort":"HPD","sqft":"3496","acres":"0.080257","vacant":"TRUE"}},{"type":"Feature","geometry":{"type":"Point","coordinates":[-73.76162281,40.67566879]},"properties":{"address":"CRANDALL AVENUE","borough":"Queens","bbl":"4129880089","zipcode":"11434","agency":"Department of Citywide Administrative Services","agencyshort":"DCAS","sqft":"3500","acres":"0.080349","vacant":"TRUE"}},{"type":"Feature","geometry":{"type":"Point","coordinates":[-73.80229116,40.59479976]},"properties":{"address":"        THURSBY AVENUE","borough":"Queens","bbl":"4160660050","zipcode":"11692","agency":"Department of Citywide Administrative Services","agencyshort":"DCAS","sqft":"3500","acres":"0.080349","vacant":"TRUE"}},{"type":"Feature","geometry":{"type":"Point","coordinates":[-73.91219549,40.82460164]},"properties":{"address":"433 EAST 162 STREET","borough":"Bronx","bbl":"2023840048","zipcode":"10451","agency":"Housing Preservation and Development","agencyshort":"HPD","sqft":"3501","acres":"0.080372","vacant":"TRUE"}},{"type":"Feature","geometry":{"type":"Point","coordinates":[-73.82905785,40.65620509]},"properties":{"address":"RUSSELL STREET","borough":"Queens","bbl":"4142381054","zipcode":"11414","agency":"Department of Citywide Administrative Services","agencyshort":"DCAS","sqft":"3520","acres":"0.080808","vacant":"TRUE"}},{"type":"Feature","geometry":{"type":"Point","coordinates":[-73.82933757,40.6575401]},"properties":{"address":"HAWTREE CREEK R","borough":"Queens","bbl":"4142340521","zipcode":"11414","agency":"Department of Citywide Administrative Services","agencyshort":"DCAS","sqft":"3525","acres":"0.080923","vacant":"TRUE"}},{"type":"Feature","geometry":{"type":"Point","coordinates":[-73.88550307,40.67437181]},"properties":{"address":"330 ASHFORD STREET","borough":"Brooklyn","bbl":"3039990019","zipcode":"11207","agency":"Housing Preservation and Development","agencyshort":"HPD","sqft":"3546","acres":"0.081405","vacant":"TRUE"}},{"type":"Feature","geometry":{"type":"Point","coordinates":[-73.91479847,40.67106782]},"properties":{"address":"        PARK PLACE","borough":"Brooklyn","bbl":"3014680056","zipcode":"11233","agency":"Housing Preservation and Development","agencyshort":"HPD","sqft":"3550","acres":"0.081497","vacant":"TRUE"}},{"type":"Feature","geometry":{"type":"Point","coordinates":[-74.08915715,40.57654168]},"properties":{"address":"0 OLYMPIA BOULEVARD","borough":"Staten Island","bbl":"5037670014","zipcode":"10305","agency":"Department of Citywide Administrative Services","agencyshort":"DCAS","sqft":"3560","acres":"0.081726","vacant":"TRUE"}},{"type":"Feature","geometry":{"type":"Point","coordinates":[-73.9224662,40.84278308]},"properties":{"address":"EDWARD L GRANT HIGHWAY","borough":"Bronx","bbl":"2028740008","zipcode":"10452","agency":"Housing Preservation and Development","agencyshort":"HPD","sqft":"3576","acres":"0.082094","vacant":"TRUE"}},{"type":"Feature","geometry":{"type":"Point","coordinates":[-73.91626829,40.56134897]},"properties":{"address":"ROCKAWAY POINT.BLVD","borough":"Queens","bbl":"4163500354","zipcode":"11697","agency":"Department of Citywide Administrative Services","agencyshort":"DCAS","sqft":"3590","acres":"0.082415","vacant":"TRUE"}},{"type":"Feature","geometry":{"type":"Point","coordinates":[-73.77521457,40.59691299]},"properties":{"address":"437 BEACH 43 STREET","borough":"Queens","bbl":"4159650099","zipcode":"11691","agency":"Housing Preservation and Development","agencyshort":"HPD","sqft":"3592","acres":"0.082461","vacant":"TRUE"}},{"type":"Feature","geometry":{"type":"Point","coordinates":[-73.92864373,40.6215723]},"properties":{"address":"        EAST 48 STREET","borough":"Brooklyn","bbl":"3078460011","zipcode":"11234","agency":"Department of Citywide Administrative Services","agencyshort":"DCAS","sqft":"3595","acres":"0.08253","vacant":"TRUE"}},{"type":"Feature","geometry":{"type":"Point","coordinates":[-74.12585976,40.62193765]},"properties":{"address":"KINGSLEY AVE","borough":"Staten Island","bbl":"5003630003","zipcode":"10314","agency":"Department of Citywide Administrative Services","agencyshort":"DCAS","sqft":"3600","acres":"0.082645","vacant":"TRUE"}},{"type":"Feature","geometry":{"type":"Point","coordinates":[-74.08978469,40.57667726]},"properties":{"address":"OLYMPIA BLVD","borough":"Staten Island","bbl":"5037660036","zipcode":"10305","agency":"Department of Citywide Administrative Services","agencyshort":"DCAS","sqft":"3600","acres":"0.082645","vacant":"TRUE"}},{"type":"Feature","geometry":{"type":"Point","coordinates":[-74.08440091,40.57686655]},"properties":{"address":"0 SEAVER AVENUE","borough":"Staten Island","bbl":"5038260007","zipcode":"10305","agency":"Department of Citywide Administrative Services","agencyshort":"DCAS","sqft":"3600","acres":"0.082645","vacant":"TRUE"}},{"type":"Feature","geometry":{"type":"Point","coordinates":[-74.1509477,40.54371304]},"properties":{"address":"OCEANVIEW PL","borough":"Staten Island","bbl":"5052490027","zipcode":"10308","agency":"Department of Citywide Administrative Services","agencyshort":"DCAS","sqft":"3600","acres":"0.082645","vacant":"TRUE"}},{"type":"Feature","geometry":{"type":"Point","coordinates":[-74.08962542,40.57491706]},"properties":{"address":"COLONY AVE","borough":"Staten Island","bbl":"5037930015","zipcode":"","agency":"Department of Citywide Administrative Services","agencyshort":"DCAS","sqft":"3610","acres":"0.082874","vacant":"TRUE"}},{"type":"Feature","geometry":{"type":"Point","coordinates":[-73.83033391,40.65374024]},"properties":{"address":"99-62 RAU COURT","borough":"Queens","bbl":"4142310087","zipcode":"","agency":"Department of Citywide Administrative Services","agencyshort":"DCAS","sqft":"3618","acres":"0.083058","vacant":"TRUE"}},{"type":"Feature","geometry":{"type":"Point","coordinates":[-73.91187476,40.82395913]},"properties":{"address":"897 ELTON AVENUE","borough":"Bronx","bbl":"2023830031","zipcode":"10451","agency":"Housing Preservation and Development","agencyshort":"HPD","sqft":"3624","acres":"0.083196","vacant":"TRUE"}},{"type":"Feature","geometry":{"type":"Point","coordinates":[-73.8918684,40.84411301]},"properties":{"address":"706 CROTONA AVE","borough":"Bronx","bbl":"2029500018","zipcode":"10457","agency":"Housing Preservation and Development","agencyshort":"HPD","sqft":"3638","acres":"0.083517","vacant":"TRUE"}},{"type":"Feature","geometry":{"type":"Point","coordinates":[-74.08997135,40.57655381]},"properties":{"address":"JEFFERSON AV","borough":"Staten Island","bbl":"5037660003","zipcode":"10305","agency":"Department of Citywide Administrative Services","agencyshort":"DCAS","sqft":"3640","acres":"0.083563","vacant":"TRUE"}},{"type":"Feature","geometry":{"type":"Point","coordinates":[-74.23799458,40.52689104]},"properties":{"address":"WANIER AVE","borough":"Staten Island","bbl":"5075290024","zipcode":"","agency":"Department of Citywide Administrative Services","agencyshort":"DCAS","sqft":"3640","acres":"0.083563","vacant":"TRUE"}},{"type":"Feature","geometry":{"type":"Point","coordinates":[-74.07480505,40.61175688]},"properties":{"address":"FLETCHER STREET","borough":"Staten Island","bbl":"5029750027","zipcode":"10305","agency":"Department of Citywide Administrative Services","agencyshort":"DCAS","sqft":"3670","acres":"0.084252","vacant":"TRUE"}},{"type":"Feature","geometry":{"type":"Point","coordinates":[-74.20626063,40.52667884]},"properties":{"address":"BOYNTON AVENUE","borough":"Staten Island","bbl":"5069400038","zipcode":"10309","agency":"Department of Citywide Administrative Services","agencyshort":"DCAS","sqft":"3700","acres":"0.08494","vacant":"TRUE"}},{"type":"Feature","geometry":{"type":"Point","coordinates":[-74.08462835,40.57684012]},"properties":{"address":"0 CANOE PLACE","borough":"Staten Island","bbl":"5038260001","zipcode":"10305","agency":"Department of Citywide Administrative Services","agencyshort":"DCAS","sqft":"3705","acres":"0.085055","vacant":"TRUE"}},{"type":"Feature","geometry":{"type":"Point","coordinates":[-73.77135074,40.59385126]},"properties":{"address":"BEACH 39 STREET","borough":"Queens","bbl":"4158480067","zipcode":"11691","agency":"Housing Preservation and Development","agencyshort":"HPD","sqft":"3722","acres":"0.085445","vacant":"TRUE"}},{"type":"Feature","geometry":{"type":"Point","coordinates":[-73.94712111,40.70136754]},"properties":{"address":"        GERRY STREET","borough":"Brooklyn","bbl":"3022690016","zipcode":"11206","agency":"Housing Preservation and Development","agencyshort":"HPD","sqft":"3750","acres":"0.086088","vacant":"TRUE"}},{"type":"Feature","geometry":{"type":"Point","coordinates":[-73.87621677,40.68777043]},"properties":{"address":"9 CHESTNUT STREET","borough":"Brooklyn","bbl":"3041040023","zipcode":"11208","agency":"Housing Preservation and Development","agencyshort":"HPD","sqft":"3750","acres":"0.086088","vacant":"TRUE"}},{"type":"Feature","geometry":{"type":"Point","coordinates":[-73.90667199,40.67182457]},"properties":{"address":"        GLENMORE AVENUE","borough":"Brooklyn","bbl":"3036920035","zipcode":"11212","agency":"Housing Preservation and Development","agencyshort":"HPD","sqft":"3750","acres":"0.086088","vacant":"TRUE"}},{"type":"Feature","geometry":{"type":"Point","coordinates":[-73.9068018,40.67180271]},"properties":{"address":"        GLENMORE AVENUE","borough":"Brooklyn","bbl":"3036920037","zipcode":"11212","agency":"Housing Preservation and Development","agencyshort":"HPD","sqft":"3750","acres":"0.086088","vacant":"TRUE"}},{"type":"Feature","geometry":{"type":"Point","coordinates":[-73.94722215,40.70130171]},"properties":{"address":"        GERRY STREET","borough":"Brooklyn","bbl":"3022690014","zipcode":"11206","agency":"Housing Preservation and Development","agencyshort":"HPD","sqft":"3750","acres":"0.086088","vacant":"TRUE"}},{"type":"Feature","geometry":{"type":"Point","coordinates":[-73.91255814,40.82471834]},"properties":{"address":"423 EAST 162 STREET","borough":"Bronx","bbl":"2023840053","zipcode":"10451","agency":"Housing Preservation and Development","agencyshort":"HPD","sqft":"3751","acres":"0.086111","vacant":"TRUE"}},{"type":"Feature","geometry":{"type":"Point","coordinates":[-73.91243024,40.82467867]},"properties":{"address":"425 EAST 162 STREET","borough":"Bronx","bbl":"2023840051","zipcode":"10451","agency":"Housing Preservation and Development","agencyshort":"HPD","sqft":"3751","acres":"0.086111","vacant":"TRUE"}},{"type":"Feature","geometry":{"type":"Point","coordinates":[-73.98617333,40.57638898]},"properties":{"address":"1926 MERMAID AVENUE","borough":"Brooklyn","bbl":"3070600001","zipcode":"11224","agency":"Housing Preservation and Development","agencyshort":"HPD","sqft":"3758","acres":"0.086272","vacant":"TRUE"}},{"type":"Feature","geometry":{"type":"Point","coordinates":[-73.77445553,40.70579167]},"properties":{"address":"LIBERTY AVENUE","borough":"Queens","bbl":"4103530065","zipcode":"11423","agency":"Department of Citywide Administrative Services","agencyshort":"DCAS","sqft":"3760","acres":"0.086318","vacant":"TRUE"}},{"type":"Feature","geometry":{"type":"Point","coordinates":[-74.08825527,40.57755158]},"properties":{"address":"0 OLYMPIA BOULEVARD","borough":"Staten Island","bbl":"5037610046","zipcode":"10305","agency":"Department of Citywide Administrative Services","agencyshort":"DCAS","sqft":"3760","acres":"0.086318","vacant":"TRUE"}},{"type":"Feature","geometry":{"type":"Point","coordinates":[-74.23805218,40.5283615]},"properties":{"address":"VETERENS ROAD WEST","borough":"Staten Island","bbl":"5074940097","zipcode":"10309","agency":"Department of Citywide Administrative Services","agencyshort":"DCAS","sqft":"3760","acres":"0.086318","vacant":"TRUE"}},{"type":"Feature","geometry":{"type":"Point","coordinates":[-74.08333965,40.57777098]},"properties":{"address":"CANOE PLACE","borough":"Staten Island","bbl":"5038230006","zipcode":"","agency":"Department of Citywide Administrative Services","agencyshort":"DCAS","sqft":"3772","acres":"0.086593","vacant":"TRUE"}},{"type":"Feature","geometry":{"type":"Point","coordinates":[-74.0881192,40.57603622]},"properties":{"address":"BADEN PLACE","borough":"Staten Island","bbl":"5037680032","zipcode":"10305","agency":"Department of Citywide Administrative Services","agencyshort":"DCAS","sqft":"3800","acres":"0.087236","vacant":"TRUE"}},{"type":"Feature","geometry":{"type":"Point","coordinates":[-74.09091403,40.57175665]},"properties":{"address":"HEMPSTEAD AVENUE","borough":"Staten Island","bbl":"5038130021","zipcode":"10306","agency":"Department of Citywide Administrative Services","agencyshort":"DCAS","sqft":"3800","acres":"0.087236","vacant":"TRUE"}},{"type":"Feature","geometry":{"type":"Point","coordinates":[-74.15040722,40.55606341]},"properties":{"address":"GIBSON AVE","borough":"Staten Island","bbl":"5046170023","zipcode":"10308","agency":"Department of Citywide Administrative Services","agencyshort":"DCAS","sqft":"3800","acres":"0.087236","vacant":"TRUE"}},{"type":"Feature","geometry":{"type":"Point","coordinates":[-73.90386413,40.65655304]},"properties":{"address":"214 HEGEMAN AVENUE","borough":"Brooklyn","bbl":"3036390037","zipcode":"11212","agency":"Housing Preservation and Development","agencyshort":"HPD","sqft":"3800","acres":"0.087236","vacant":"TRUE"}},{"type":"Feature","geometry":{"type":"Point","coordinates":[-73.90400112,40.65653394]},"properties":{"address":"210 HEGEMAN AVENUE","borough":"Brooklyn","bbl":"3036390035","zipcode":"11212","agency":"Housing Preservation and Development","agencyshort":"HPD","sqft":"3800","acres":"0.087236","vacant":"TRUE"}},{"type":"Feature","geometry":{"type":"Point","coordinates":[-73.77760307,40.59526563]},"properties":{"address":"BEACH 46 STREET","borough":"Queens","bbl":"4158380037","zipcode":"11691","agency":"Housing Preservation and Development","agencyshort":"HPD","sqft":"3804","acres":"0.087328","vacant":"TRUE"}},{"type":"Feature","geometry":{"type":"Point","coordinates":[-73.77782686,40.59425561]},"properties":{"address":"328 BEACH 47 STREET","borough":"Queens","bbl":"4158380007","zipcode":"11691","agency":"Housing Preservation and Development","agencyshort":"HPD","sqft":"3804","acres":"0.087328","vacant":"TRUE"}},{"type":"Feature","geometry":{"type":"Point","coordinates":[-73.77784089,40.59436543]},"properties":{"address":"332 BEACH 47 STREET","borough":"Queens","bbl":"4158380009","zipcode":"11691","agency":"Housing Preservation and Development","agencyshort":"HPD","sqft":"3804","acres":"0.087328","vacant":"TRUE"}},{"type":"Feature","geometry":{"type":"Point","coordinates":[-73.77787941,40.59469214]},"properties":{"address":"342-44 BEACH 47 STREET","borough":"Queens","bbl":"4158380015","zipcode":"11691","agency":"Housing Preservation and Development","agencyshort":"HPD","sqft":"3804","acres":"0.087328","vacant":"TRUE"}},{"type":"Feature","geometry":{"type":"Point","coordinates":[-73.77789345,40.59480196]},"properties":{"address":"346-34 BEACH 47 STREET","borough":"Queens","bbl":"4158380017","zipcode":"11691","agency":"Housing Preservation and Development","agencyshort":"HPD","sqft":"3804","acres":"0.087328","vacant":"TRUE"}},{"type":"Feature","geometry":{"type":"Point","coordinates":[-73.85827941,40.67181356]},"properties":{"address":"77-07 DUMONT AVENUE","borough":"Queens","bbl":"4113570037","zipcode":"11414","agency":"Housing Preservation and Development","agencyshort":"HPD","sqft":"3813","acres":"0.087534","vacant":"TRUE"}},{"type":"Feature","geometry":{"type":"Point","coordinates":[-74.08357037,40.60350058]},"properties":{"address":"CLOVE ROAD","borough":"Staten Island","bbl":"5031620012","zipcode":"10305","agency":"Department of Citywide Administrative Services","agencyshort":"DCAS","sqft":"3814","acres":"0.087557","vacant":"TRUE"}},{"type":"Feature","geometry":{"type":"Point","coordinates":[-73.90788689,40.67440564]},"properties":{"address":"2396 DEAN STREET","borough":"Brooklyn","bbl":"3014500011","zipcode":"11233","agency":"Housing Preservation and Development","agencyshort":"HPD","sqft":"3814","acres":"0.087557","vacant":"TRUE"}},{"type":"Feature","geometry":{"type":"Point","coordinates":[-73.77604271,40.60052695]},"properties":{"address":"574 BEACH 44 STREET","borough":"Queens","bbl":"4159620028","zipcode":"11691","agency":"Housing Preservation and Development","agencyshort":"HPD","sqft":"3823","acres":"0.087764","vacant":"TRUE"}},{"type":"Feature","geometry":{"type":"Point","coordinates":[-73.77566302,40.59723574]},"properties":{"address":"BEACH 44 STREET","borough":"Queens","bbl":"4159650029","zipcode":"11691","agency":"Housing Preservation and Development","agencyshort":"HPD","sqft":"3830","acres":"0.087925","vacant":"TRUE"}},{"type":"Feature","geometry":{"type":"Point","coordinates":[-73.77648236,40.60005552]},"properties":{"address":"555 BEACH 44 STREET","borough":"Queens","bbl":"4159630030","zipcode":"11691","agency":"Housing Preservation and Development","agencyshort":"HPD","sqft":"3831","acres":"0.087948","vacant":"TRUE"}},{"type":"Feature","geometry":{"type":"Point","coordinates":[-73.77618816,40.59758463]},"properties":{"address":"465 BEACH 44 STREET","borough":"Queens","bbl":"4159660066","zipcode":"11691","agency":"Housing Preservation and Development","agencyshort":"HPD","sqft":"3831","acres":"0.087948","vacant":"TRUE"}},{"type":"Feature","geometry":{"type":"Point","coordinates":[-73.77609368,40.59676649]},"properties":{"address":"437 BEACH 44 STREET","borough":"Queens","bbl":"4159660081","zipcode":"11691","agency":"Housing Preservation and Development","agencyshort":"HPD","sqft":"3831","acres":"0.087948","vacant":"TRUE"}},{"type":"Feature","geometry":{"type":"Point","coordinates":[-73.76387495,40.65599596]},"properties":{"address":"150 ROAD","borough":"Queens","bbl":"4134330005","zipcode":"11434","agency":"Department of Citywide Administrative Services","agencyshort":"DCAS","sqft":"3850","acres":"0.088384","vacant":"TRUE"}},{"type":"Feature","geometry":{"type":"Point","coordinates":[-74.16120655,40.63396132]},"properties":{"address":"LOCKMAN AVE","borough":"Staten Island","bbl":"5012360117","zipcode":"10303","agency":"Department of Citywide Administrative Services","agencyshort":"DCAS","sqft":"3900","acres":"0.089532","vacant":"TRUE"}},{"type":"Feature","geometry":{"type":"Point","coordinates":[-74.10040058,40.57822395]},"properties":{"address":"BEDFORD AVE","borough":"Staten Island","bbl":"5036880025","zipcode":"10306","agency":"Department of Citywide Administrative Services","agencyshort":"DCAS","sqft":"3900","acres":"0.089532","vacant":"TRUE"}},{"type":"Feature","geometry":{"type":"Point","coordinates":[-73.95497571,40.59518619]},"properties":{"address":"        EAST 16 STREET","borough":"Brooklyn","bbl":"3073760032","zipcode":"11229","agency":"Department of Citywide Administrative Services","agencyshort":"DCAS","sqft":"3920","acres":"0.089991","vacant":"TRUE"}},{"type":"Feature","geometry":{"type":"Point","coordinates":[-73.911409,40.674481]},"properties":{"address":"254 ROCKAWAY AVENUE","borough":"Brooklyn","bbl":"3014480035","zipcode":"11233","agency":"Fire Department","agencyshort":"FDNY","sqft":"3942","acres":"0.090496","vacant":"TRUE"}},{"type":"Feature","geometry":{"type":"Point","coordinates":[-73.92118451,40.68786491]},"properties":{"address":"910 MADISON STREET","borough":"Brooklyn","bbl":"3014830036","zipcode":"11221","agency":"Department of Citywide Administrative Services","agencyshort":"DCAS","sqft":"4000","acres":"0.091827","vacant":"TRUE"}},{"type":"Feature","geometry":{"type":"Point","coordinates":[-74.14438573,40.62430952]},"properties":{"address":"WILLOWBROOK RD","borough":"Staten Island","bbl":"5014760078","zipcode":"10302","agency":"Department of Citywide Administrative Services","agencyshort":"DCAS","sqft":"4000","acres":"0.091827","vacant":"TRUE"}},{"type":"Feature","geometry":{"type":"Point","coordinates":[-74.09268235,40.57968522]},"properties":{"address":"0 MASON AVENUE","borough":"Staten Island","bbl":"5037150001","zipcode":"","agency":"Department of Citywide Administrative Services","agencyshort":"DCAS","sqft":"4000","acres":"0.091827","vacant":"TRUE"}},{"type":"Feature","geometry":{"type":"Point","coordinates":[-74.09172986,40.57963252]},"properties":{"address":"FILBERT AVE","borough":"Staten Island","bbl":"5037150020","zipcode":"","agency":"Department of Citywide Administrative Services","agencyshort":"DCAS","sqft":"4000","acres":"0.091827","vacant":"TRUE"}},{"type":"Feature","geometry":{"type":"Point","coordinates":[-74.0910711,40.57930015]},"properties":{"address":"FILBERT AVE","borough":"Staten Island","bbl":"5037150031","zipcode":"","agency":"Department of Citywide Administrative Services","agencyshort":"DCAS","sqft":"4000","acres":"0.091827","vacant":"TRUE"}},{"type":"Feature","geometry":{"type":"Point","coordinates":[-74.09053951,40.57702282]},"properties":{"address":"FREEBORN STREET","borough":"Staten Island","bbl":"5037650038","zipcode":"","agency":"Department of Citywide Administrative Services","agencyshort":"DCAS","sqft":"4000","acres":"0.091827","vacant":"TRUE"}},{"type":"Feature","geometry":{"type":"Point","coordinates":[-74.08751532,40.57549507]},"properties":{"address":"0 PATTERSON AVENUE","borough":"Staten Island","bbl":"5037690034","zipcode":"","agency":"Department of Citywide Administrative Services","agencyshort":"DCAS","sqft":"4000","acres":"0.091827","vacant":"TRUE"}},{"type":"Feature","geometry":{"type":"Point","coordinates":[-74.08771574,40.57408965]},"properties":{"address":"JAY STREET","borough":"Staten Island","bbl":"5038610037","zipcode":"10306","agency":"Department of Citywide Administrative Services","agencyshort":"DCAS","sqft":"4000","acres":"0.091827","vacant":"TRUE"}},{"type":"Feature","geometry":{"type":"Point","coordinates":[-74.15762734,40.53986133]},"properties":{"address":"THORNYCROFT AVE","borough":"Staten Island","bbl":"5052670032","zipcode":"10312","agency":"Department of Citywide Administrative Services","agencyshort":"DCAS","sqft":"4000","acres":"0.091827","vacant":"TRUE"}},{"type":"Feature","geometry":{"type":"Point","coordinates":[-74.15770973,40.53971025]},"properties":{"address":"THORNYCROFT","borough":"Staten Island","bbl":"5052670034","zipcode":"10312","agency":"Department of Citywide Administrative Services","agencyshort":"DCAS","sqft":"4000","acres":"0.091827","vacant":"TRUE"}},{"type":"Feature","geometry":{"type":"Point","coordinates":[-74.2380897,40.52876809]},"properties":{"address":"BECKMAN ST","borough":"Staten Island","bbl":"5074940183","zipcode":"10309","agency":"Department of Citywide Administrative Services","agencyshort":"DCAS","sqft":"4000","acres":"0.091827","vacant":"TRUE"}},{"type":"Feature","geometry":{"type":"Point","coordinates":[-74.23905935,40.52770327]},"properties":{"address":"ARTHUR KILL RD","borough":"Staten Island","bbl":"5075280009","zipcode":"10309","agency":"Department of Citywide Administrative Services","agencyshort":"DCAS","sqft":"4000","acres":"0.091827","vacant":"TRUE"}},{"type":"Feature","geometry":{"type":"Point","coordinates":[-74.23854435,40.52758635]},"properties":{"address":"SCHMEIG AV","borough":"Staten Island","bbl":"5075280017","zipcode":"10309","agency":"Department of Citywide Administrative Services","agencyshort":"DCAS","sqft":"4000","acres":"0.091827","vacant":"TRUE"}},{"type":"Feature","geometry":{"type":"Point","coordinates":[-73.91914173,40.67456506]},"properties":{"address":"383 HOWARD AVENUE","borough":"Brooklyn","bbl":"3014460001","zipcode":"11233","agency":"Housing Preservation and Development","agencyshort":"HPD","sqft":"4000","acres":"0.091827","vacant":"TRUE"}},{"type":"Feature","geometry":{"type":"Point","coordinates":[-73.920416,40.687939]},"properties":{"address":"924 MADISON STREET","borough":"Brooklyn","bbl":"3014840006","zipcode":"11221","agency":"Housing Preservation and Development","agencyshort":"HPD","sqft":"4000","acres":"0.091827","vacant":"TRUE"}},{"type":"Feature","geometry":{"type":"Point","coordinates":[-73.89139611,40.66849547]},"properties":{"address":"743 BLAKE AVENUE","borough":"Brooklyn","bbl":"3037750150","zipcode":"11207","agency":"Housing Preservation and Development","agencyshort":"HPD","sqft":"4000","acres":"0.091827","vacant":"TRUE"}},{"type":"Feature","geometry":{"type":"Point","coordinates":[-73.9199831,40.6875017]},"properties":{"address":"1023 PUTNAM AVENUE","borough":"Brooklyn","bbl":"3014840035","zipcode":"11221","agency":"Housing Preservation and Development","agencyshort":"HPD","sqft":"4000","acres":"0.091827","vacant":"TRUE"}},{"type":"Feature","geometry":{"type":"Point","coordinates":[-73.920277,40.687956]},"properties":{"address":"928 MADISON STREET","borough":"Brooklyn","bbl":"3014840008","zipcode":"11221","agency":"Housing Preservation and Development","agencyshort":"HPD","sqft":"4000","acres":"0.091827","vacant":"TRUE"}},{"type":"Feature","geometry":{"type":"Point","coordinates":[-73.9036204,40.66310463]},"properties":{"address":"        LIVONIA AVENUE","borough":"Brooklyn","bbl":"3038120022","zipcode":"11212","agency":"Housing Preservation and Development","agencyshort":"HPD","sqft":"4000","acres":"0.091827","vacant":"TRUE"}},{"type":"Feature","geometry":{"type":"Point","coordinates":[-73.93440764,40.62852555]},"properties":{"address":"1087 EAST 43 STREET","borough":"Brooklyn","bbl":"3077690017","zipcode":"11210","agency":"Housing Preservation and Development","agencyshort":"HPD","sqft":"4000","acres":"0.091827","vacant":"TRUE"}},{"type":"Feature","geometry":{"type":"Point","coordinates":[-73.79157974,40.69874117]},"properties":{"address":"107 AVENUE","borough":"Queens","bbl":"4101620049","zipcode":"11433","agency":"Housing Preservation and Development","agencyshort":"HPD","sqft":"4000","acres":"0.091827","vacant":"TRUE"}},{"type":"Feature","geometry":{"type":"Point","coordinates":[-73.77505849,40.60048643]},"properties":{"address":"548-50 BEACH 43 STREET","borough":"Queens","bbl":"4159610085","zipcode":"11691","agency":"Housing Preservation and Development","agencyshort":"HPD","sqft":"4000","acres":"0.091827","vacant":"TRUE"}},{"type":"Feature","geometry":{"type":"Point","coordinates":[-73.77462161,40.59670184]},"properties":{"address":"428 BEACH 43 STREET","borough":"Queens","bbl":"4159600018","zipcode":"11691","agency":"Housing Preservation and Development","agencyshort":"HPD","sqft":"4000","acres":"0.091827","vacant":"TRUE"}},{"type":"Feature","geometry":{"type":"Point","coordinates":[-73.77469749,40.59735656]},"properties":{"address":"BEACH 43 STREET","borough":"Queens","bbl":"4159600030","zipcode":"11691","agency":"Housing Preservation and Development","agencyshort":"HPD","sqft":"4000","acres":"0.091827","vacant":"TRUE"}},{"type":"Feature","geometry":{"type":"Point","coordinates":[-73.77472961,40.59763393]},"properties":{"address":"464 BEACH 43 STREET","borough":"Queens","bbl":"4159600035","zipcode":"11691","agency":"Housing Preservation and Development","agencyshort":"HPD","sqft":"4000","acres":"0.091827","vacant":"TRUE"}},{"type":"Feature","geometry":{"type":"Point","coordinates":[-73.77480618,40.59829442]},"properties":{"address":"BEACH 43 STREET","borough":"Queens","bbl":"4159600046","zipcode":"11691","agency":"Housing Preservation and Development","agencyshort":"HPD","sqft":"4000","acres":"0.091827","vacant":"TRUE"}},{"type":"Feature","geometry":{"type":"Point","coordinates":[-73.77504806,40.60037661]},"properties":{"address":"546 BEACH 43 STREET","borough":"Queens","bbl":"4159610083","zipcode":"11691","agency":"Housing Preservation and Development","agencyshort":"HPD","sqft":"4000","acres":"0.091827","vacant":"TRUE"}},{"type":"Feature","geometry":{"type":"Point","coordinates":[-73.77515657,40.60130457]},"properties":{"address":"590 BEACH 43 STREET","borough":"Queens","bbl":"4159610100","zipcode":"11691","agency":"Housing Preservation and Development","agencyshort":"HPD","sqft":"4000","acres":"0.091827","vacant":"TRUE"}},{"type":"Feature","geometry":{"type":"Point","coordinates":[-73.77512381,40.6010349]},"properties":{"address":"584A BEACH 43 STREET","borough":"Queens","bbl":"4159610095","zipcode":"11691","agency":"Housing Preservation and Development","agencyshort":"HPD","sqft":"4000","acres":"0.091827","vacant":"TRUE"}},{"type":"Feature","geometry":{"type":"Point","coordinates":[-73.99406064,40.57328036]},"properties":{"address":"2801 SURF AVENUE","borough":"Brooklyn","bbl":"3070520047","zipcode":"11224","agency":"Housing Preservation and Development","agencyshort":"HPD","sqft":"4024","acres":"0.092378","vacant":"TRUE"}},{"type":"Feature","geometry":{"type":"Point","coordinates":[-74.08819669,40.64070004]},"properties":{"address":"230 YORK AVE","borough":"Staten Island","bbl":"5000530117","zipcode":"10301","agency":"Department of Citywide Administrative Services","agencyshort":"DCAS","sqft":"4028","acres":"0.09247","vacant":"TRUE"}},{"type":"Feature","geometry":{"type":"Point","coordinates":[-73.77539889,40.59851844]},"properties":{"address":"BEACH 43 STREET","borough":"Queens","bbl":"4159650070","zipcode":"11691","agency":"Housing Preservation and Development","agencyshort":"HPD","sqft":"4091","acres":"0.093916","vacant":"TRUE"}},{"type":"Feature","geometry":{"type":"Point","coordinates":[-73.86106435,40.67251683]},"properties":{"address":"        BLAKE AVENUE","borough":"Brooklyn","bbl":"3042910027","zipcode":"11208","agency":"Housing Preservation and Development","agencyshort":"HPD","sqft":"4116","acres":"0.09449","vacant":"TRUE"}},{"type":"Feature","geometry":{"type":"Point","coordinates":[-74.08311314,40.57753235]},"properties":{"address":"CANOE PLACE","borough":"Staten Island","bbl":"5038230001","zipcode":"","agency":"Department of Citywide Administrative Services","agencyshort":"DCAS","sqft":"4140","acres":"0.095041","vacant":"TRUE"}},{"type":"Feature","geometry":{"type":"Point","coordinates":[-74.09090915,40.57912105]},"properties":{"address":"NUGENT AVE","borough":"Staten Island","bbl":"5037150037","zipcode":"","agency":"Department of Citywide Administrative Services","agencyshort":"DCAS","sqft":"4200","acres":"0.096419","vacant":"TRUE"}},{"type":"Feature","geometry":{"type":"Point","coordinates":[-74.09099121,40.57902722]},"properties":{"address":"NUGENT AVE","borough":"Staten Island","bbl":"5037150039","zipcode":"","agency":"Department of Citywide Administrative Services","agencyshort":"DCAS","sqft":"4200","acres":"0.096419","vacant":"TRUE"}},{"type":"Feature","geometry":{"type":"Point","coordinates":[-73.91913438,40.67468033]},"properties":{"address":"379 HOWARD AVENUE","borough":"Brooklyn","bbl":"3014460003","zipcode":"11233","agency":"Housing Preservation and Development","agencyshort":"HPD","sqft":"4217","acres":"0.096809","vacant":"TRUE"}},{"type":"Feature","geometry":{"type":"Point","coordinates":[-73.82016563,40.88663771]},"properties":{"address":"EASTCHESTER PLACE","borough":"Bronx","bbl":"2056540208","zipcode":"10475","agency":"Department of Citywide Administrative Services","agencyshort":"DCAS","sqft":"4248","acres":"0.097521","vacant":"TRUE"}},{"type":"Feature","geometry":{"type":"Point","coordinates":[-73.89010632,40.72761393]},"properties":{"address":"72 PLACE","borough":"Queens","bbl":"4028080154","zipcode":"11378","agency":"Department of Citywide Administrative Services","agencyshort":"DCAS","sqft":"4250","acres":"0.097567","vacant":"TRUE"}},{"type":"Feature","geometry":{"type":"Point","coordinates":[-73.91950925,40.66875462]},"properties":{"address":"1297 EAST NEW YORK AVENUE","borough":"Brooklyn","bbl":"3014760034","zipcode":"11212","agency":"Housing Preservation and Development","agencyshort":"HPD","sqft":"4275","acres":"0.09814","vacant":"TRUE"}},{"type":"Feature","geometry":{"type":"Point","coordinates":[-73.77768086,40.59592692]},"properties":{"address":"413 BEACH 46 STREET","borough":"Queens","bbl":"4159690073","zipcode":"11691","agency":"Housing Preservation and Development","agencyshort":"HPD","sqft":"4280","acres":"0.098255","vacant":"TRUE"}},{"type":"Feature","geometry":{"type":"Point","coordinates":[-73.777132,40.59542]},"properties":{"address":"BEACH CHANNEL DRIVE","borough":"Queens","bbl":"4158370033","zipcode":"11691","agency":"Housing Preservation and Development","agencyshort":"HPD","sqft":"4284","acres":"0.09835","vacant":"TRUE"}},{"type":"Feature","geometry":{"type":"Point","coordinates":[-73.91369454,40.67170928]},"properties":{"address":"        EASTERN PARKWAY","borough":"Brooklyn","bbl":"3014650009","zipcode":"11233","agency":"Housing Preservation and Development","agencyshort":"HPD","sqft":"4290","acres":"0.098485","vacant":"TRUE"}},{"type":"Feature","geometry":{"type":"Point","coordinates":[-73.91982411,40.67371191]},"properties":{"address":"412 HOWARD AVENUE","borough":"Brooklyn","bbl":"3014510048","zipcode":"11233","agency":"Housing Preservation and Development","agencyshort":"HPD","sqft":"4300","acres":"0.098714","vacant":"TRUE"}},{"type":"Feature","geometry":{"type":"Point","coordinates":[-73.76786907,40.68179398]},"properties":{"address":"126 AVENUE","borough":"Queens","bbl":"4125250030","zipcode":"11434","agency":"Department of Citywide Administrative Services","agencyshort":"DCAS","sqft":"4312","acres":"0.09899","vacant":"TRUE"}},{"type":"Feature","geometry":{"type":"Point","coordinates":[-73.91754061,40.82364219]},"properties":{"address":"3120 PARK AVENUE","borough":"Bronx","bbl":"2024180006","zipcode":"10451","agency":"Housing Preservation and Development","agencyshort":"HPD","sqft":"4353","acres":"0.099931","vacant":"TRUE"}},{"type":"Feature","geometry":{"type":"Point","coordinates":[-74.22003443,40.54801886]},"properties":{"address":"VETERANS ROAD EAST","borough":"Staten Island","bbl":"5070860001","zipcode":"10309","agency":"Department of Citywide Administrative Services","agencyshort":"DCAS","sqft":"4389","acres":"0.100758","vacant":"TRUE"}},{"type":"Feature","geometry":{"type":"Point","coordinates":[-73.94799929,40.79617155]},"properties":{"address":"1650 MADISON AVENUE","borough":"Manhattan","bbl":"1016150059","zipcode":"10029","agency":"Housing Preservation and Development","agencyshort":"HPD","sqft":"4392","acres":"0.100826","vacant":"TRUE"}},{"type":"Feature","geometry":{"type":"Point","coordinates":[-73.92025982,40.67714593]},"properties":{"address":"1923 ATLANTIC AVENUE","borough":"Brooklyn","bbl":"3015570028","zipcode":"11233","agency":"Housing Preservation and Development","agencyshort":"HPD","sqft":"4410","acres":"0.10124","vacant":"TRUE"}},{"type":"Feature","geometry":{"type":"Point","coordinates":[-73.76367384,40.6564928]},"properties":{"address":"SPRINGFIELD BLVD","borough":"Queens","bbl":"4134320006","zipcode":"11413","agency":"Department of Citywide Administrative Services","agencyshort":"DCAS","sqft":"4437","acres":"0.10186","vacant":"TRUE"}},{"type":"Feature","geometry":{"type":"Point","coordinates":[-73.77898651,40.59745555]},"properties":{"address":"4710 NORTON AVENUE","borough":"Queens","bbl":"4159710016","zipcode":"11691","agency":"Housing Preservation and Development","agencyshort":"HPD","sqft":"4459","acres":"0.102365","vacant":"TRUE"}},{"type":"Feature","geometry":{"type":"Point","coordinates":[-74.08080191,40.5782113]},"properties":{"address":"0 FATHER CAPODANNO BOULEVA","borough":"Staten Island","bbl":"5038380002","zipcode":"10305","agency":"Department of Citywide Administrative Services","agencyshort":"DCAS","sqft":"4480","acres":"0.102847","vacant":"TRUE"}},{"type":"Feature","geometry":{"type":"Point","coordinates":[-74.02573807,40.64089567]},"properties":{"address":"        2 AVENUE","borough":"Brooklyn","bbl":"3058060097","zipcode":"11220","agency":"Department of Small Business Services","agencyshort":"SBS","sqft":"4480","acres":"0.102847","vacant":"TRUE"}},{"type":"Feature","geometry":{"type":"Point","coordinates":[-73.88500065,40.6688598]},"properties":{"address":"        WARWICK STREET","borough":"Brooklyn","bbl":"3040620030","zipcode":"11207","agency":"Housing Preservation and Development","agencyshort":"HPD","sqft":"4490","acres":"0.103076","vacant":"TRUE"}},{"type":"Feature","geometry":{"type":"Point","coordinates":[-73.73242941,40.65886576]},"properties":{"address":"MEMPHIS AVENUE","borough":"Queens","bbl":"4135860021","zipcode":"11422","agency":"Department of Citywide Administrative Services","agencyshort":"DCAS","sqft":"4500","acres":"0.103306","vacant":"TRUE"}},{"type":"Feature","geometry":{"type":"Point","coordinates":[-74.08707146,40.57584552]},"properties":{"address":"GRAHAM BLVD","borough":"Staten Island","bbl":"5037690026","zipcode":"","agency":"Department of Citywide Administrative Services","agencyshort":"DCAS","sqft":"4500","acres":"0.103306","vacant":"TRUE"}},{"type":"Feature","geometry":{"type":"Point","coordinates":[-74.0832051,40.57772786]},"properties":{"address":"0 CANOE PLACE","borough":"Staten Island","bbl":"5038230017","zipcode":"","agency":"Department of Citywide Administrative Services","agencyshort":"DCAS","sqft":"4500","acres":"0.103306","vacant":"TRUE"}},{"type":"Feature","geometry":{"type":"Point","coordinates":[-74.12661063,40.60610184]},"properties":{"address":"GANSEVOORT BOVD WESTW","borough":"Staten Island","bbl":"5007600050","zipcode":"10314","agency":"Department of Citywide Administrative Services","agencyshort":"DCAS","sqft":"4520","acres":"0.103765","vacant":"TRUE"}},{"type":"Feature","geometry":{"type":"Point","coordinates":[-74.12806785,40.6038887]},"properties":{"address":"HOLDEN BOULEVAR","borough":"Staten Island","bbl":"5008080023","zipcode":"10314","agency":"Department of Citywide Administrative Services","agencyshort":"DCAS","sqft":"4560","acres":"0.104683","vacant":"TRUE"}},{"type":"Feature","geometry":{"type":"Point","coordinates":[-73.78425249,40.59236874]},"properties":{"address":"ROCKAWAY BCH BL","borough":"Queens","bbl":"4158910001","zipcode":"11691","agency":"Department of Transportation","agencyshort":"DOT","sqft":"4586","acres":"0.10528","vacant":"TRUE"}},{"type":"Feature","geometry":{"type":"Point","coordinates":[-74.00196195,40.57887166]},"properties":{"address":"3566 CANAL AVENUE","borough":"Brooklyn","bbl":"3069780022","zipcode":"11224","agency":"Housing Preservation and Development","agencyshort":"HPD","sqft":"4598","acres":"0.105556","vacant":"TRUE"}},{"type":"Feature","geometry":{"type":"Point","coordinates":[-73.91383089,40.67220344]},"properties":{"address":"        EASTERN PARKWAY","borough":"Brooklyn","bbl":"3014650001","zipcode":"11233","agency":"Department of Transportation","agencyshort":"DOT","sqft":"4614","acres":"0.105923","vacant":"TRUE"}},{"type":"Feature","geometry":{"type":"Point","coordinates":[-74.17150727,40.63704922]},"properties":{"address":"HOLLAND AVE","borough":"Staten Island","bbl":"5013180144","zipcode":"10303","agency":"Department of Small Business Services","agencyshort":"SBS","sqft":"4650","acres":"0.106749","vacant":"TRUE"}},{"type":"Feature","geometry":{"type":"Point","coordinates":[-73.9170983,40.72539119]},"properties":{"address":"56 ROAD","borough":"Queens","bbl":"4025750075","zipcode":"11378","agency":"Department of Citywide Administrative Services","agencyshort":"DCAS","sqft":"4670","acres":"0.107208","vacant":"TRUE"}},{"type":"Feature","geometry":{"type":"Point","coordinates":[-73.91204033,40.683701]},"properties":{"address":"1700 BROADWAY","borough":"Brooklyn","bbl":"3015070037","zipcode":"11207","agency":"Housing Preservation and Development","agencyshort":"HPD","sqft":"4680","acres":"0.107438","vacant":"TRUE"}},{"type":"Feature","geometry":{"type":"Point","coordinates":[-73.83121425,40.73977916]},"properties":{"address":"63 ROAD","borough":"Queens","bbl":"4063910024","zipcode":"11367","agency":"Department of Citywide Administrative Services","agencyshort":"DCAS","sqft":"4700","acres":"0.107897","vacant":"TRUE"}},{"type":"Feature","geometry":{"type":"Point","coordinates":[-73.76448428,40.65484949]},"properties":{"address":"ROCKAWAY BOULEV","borough":"Queens","bbl":"4134200008","zipcode":"11413","agency":"Department of Citywide Administrative Services","agencyshort":"DCAS","sqft":"4700","acres":"0.107897","vacant":"TRUE"}},{"type":"Feature","geometry":{"type":"Point","coordinates":[-73.98435848,40.57844792]},"properties":{"address":"        WEST 16 STREET","borough":"Brooklyn","bbl":"3070210016","zipcode":"11224","agency":"Department of Citywide Administrative Services","agencyshort":"DCAS","sqft":"4750","acres":"0.109045","vacant":"TRUE"}},{"type":"Feature","geometry":{"type":"Point","coordinates":[-73.9969223,40.57390629]},"properties":{"address":"2953 MERMAID AVENUE","borough":"Brooklyn","bbl":"3070500074","zipcode":"11224","agency":"Housing Preservation and Development","agencyshort":"HPD","sqft":"4750","acres":"0.109045","vacant":"TRUE"}},{"type":"Feature","geometry":{"type":"Point","coordinates":[-74.15333707,40.54805873]},"properties":{"address":"SEELEY LANE","borough":"Staten Island","bbl":"5052230065","zipcode":"10308","agency":"Department of Citywide Administrative Services","agencyshort":"DCAS","sqft":"4756","acres":"0.109183","vacant":"TRUE"}},{"type":"Feature","geometry":{"type":"Point","coordinates":[-73.91153049,40.82472739]},"properties":{"address":"925 BROOK AVENUE","borough":"Bronx","bbl":"2023840025","zipcode":"10451","agency":"Housing Preservation and Development","agencyshort":"HPD","sqft":"4756","acres":"0.109183","vacant":"TRUE"}},{"type":"Feature","geometry":{"type":"Point","coordinates":[-73.83913693,40.88267497]},"properties":{"address":"BAYCHESTER AV","borough":"Bronx","bbl":"2049180028","zipcode":"10466","agency":"Department of Citywide Administrative Services","agencyshort":"DCAS","sqft":"4757","acres":"0.109206","vacant":"TRUE"}},{"type":"Feature","geometry":{"type":"Point","coordinates":[-73.85722667,40.66680578]},"properties":{"address":"        STANLEY AVENUE","borough":"Brooklyn","bbl":"3045400001","zipcode":"11208","agency":"Housing Preservation and Development","agencyshort":"HPD","sqft":"4760","acres":"0.109275","vacant":"TRUE"}},{"type":"Feature","geometry":{"type":"Point","coordinates":[-73.77594142,40.59966087]},"properties":{"address":"BEACH 44 STREET","borough":"Queens","bbl":"4159620014","zipcode":"11691","agency":"Housing Preservation and Development","agencyshort":"HPD","sqft":"4779","acres":"0.109711","vacant":"TRUE"}},{"type":"Feature","geometry":{"type":"Point","coordinates":[-74.1986729,40.52986208]},"properties":{"address":"VERNON AVE","borough":"Staten Island","bbl":"5068550060","zipcode":"10309","agency":"Department of Citywide Administrative Services","agencyshort":"DCAS","sqft":"4800","acres":"0.110193","vacant":"TRUE"}},{"type":"Feature","geometry":{"type":"Point","coordinates":[-73.9881059,40.57883538]},"properties":{"address":"2021 NEPTUNE AVENUE","borough":"Brooklyn","bbl":"3069920047","zipcode":"11224","agency":"Department of Citywide Administrative Services","agencyshort":"DCAS","sqft":"4804","acres":"0.110285","vacant":"TRUE"}},{"type":"Feature","geometry":{"type":"Point","coordinates":[-73.88714563,40.66877683]},"properties":{"address":"        BLAKE AVENUE","borough":"Brooklyn","bbl":"3040600016","zipcode":"11207","agency":"Housing Preservation and Development","agencyshort":"HPD","sqft":"4825","acres":"0.110767","vacant":"TRUE"}},{"type":"Feature","geometry":{"type":"Point","coordinates":[-73.79313079,40.69978297]},"properties":{"address":"163-10 SOUTH ROAD","borough":"Queens","bbl":"4101610003","zipcode":"11433","agency":"Housing Preservation and Development","agencyshort":"HPD","sqft":"4865","acres":"0.111685","vacant":"TRUE"}},{"type":"Feature","geometry":{"type":"Point","coordinates":[-73.989979,40.668254]},"properties":{"address":"487 4 AVENUE","borough":"Brooklyn","bbl":"3010280007","zipcode":"11215","agency":"Housing Preservation and Development","agencyshort":"HPD","sqft":"4892","acres":"0.112305","vacant":"TRUE"}},{"type":"Feature","geometry":{"type":"Point","coordinates":[-73.91320823,40.67165685]},"properties":{"address":"        EAST NEW YORK AVENUE","borough":"Brooklyn","bbl":"3014650059","zipcode":"0","agency":"Housing Preservation and Development","agencyshort":"HPD","sqft":"4925","acres":"0.113062","vacant":"TRUE"}},{"type":"Feature","geometry":{"type":"Point","coordinates":[-73.89093811,40.73383597]},"properties":{"address":"51-73 72 PLACE","borough":"Queens","bbl":"4024850001","zipcode":"","agency":"Department of Citywide Administrative Services","agencyshort":"DCAS","sqft":"4950","acres":"0.113636","vacant":"TRUE"}},{"type":"Feature","geometry":{"type":"Point","coordinates":[-74.19874063,40.52995904]},"properties":{"address":"VERNON AVE","borough":"Staten Island","bbl":"5068550058","zipcode":"10309","agency":"Department of Citywide Administrative Services","agencyshort":"DCAS","sqft":"4960","acres":"0.113866","vacant":"TRUE"}},{"type":"Feature","geometry":{"type":"Point","coordinates":[-74.21947855,40.5508432]},"properties":{"address":"VETERANS ROAD WEST","borough":"Staten Island","bbl":"5070890030","zipcode":"10309","agency":"Department of Citywide Administrative Services","agencyshort":"DCAS","sqft":"4971","acres":"0.114118","vacant":"TRUE"}},{"type":"Feature","geometry":{"type":"Point","coordinates":[-74.08556565,40.57568308]},"properties":{"address":"GRAHAM BOULEVAR","borough":"Staten Island","bbl":"5038460001","zipcode":"10305","agency":"Department of Citywide Administrative Services","agencyshort":"DCAS","sqft":"4975","acres":"0.11421","vacant":"TRUE"}},{"type":"Feature","geometry":{"type":"Point","coordinates":[-74.08535558,40.57612319]},"properties":{"address":"SIOUX STREET","borough":"Staten Island","bbl":"5038450001","zipcode":"","agency":"Department of Citywide Administrative Services","agencyshort":"DCAS","sqft":"4980","acres":"0.114325","vacant":"TRUE"}},{"type":"Feature","geometry":{"type":"Point","coordinates":[-73.93507665,40.80369104]},"properties":{"address":"209-11 EAST 125 STREET","borough":"Manhattan","bbl":"1017900006","zipcode":"10035","agency":"Housing Preservation and Development","agencyshort":"HPD","sqft":"4996","acres":"0.114692","vacant":"TRUE"}},{"type":"Feature","geometry":{"type":"Point","coordinates":[-73.79105986,40.6951433]},"properties":{"address":"UNION HALL STRE","borough":"Queens","bbl":"4101500008","zipcode":"11433","agency":"Housing Preservation and Development","agencyshort":"HPD","sqft":"4998","acres":"0.114738","vacant":"TRUE"}},{"type":"Feature","geometry":{"type":"Point","coordinates":[-73.83863206,40.66101142]},"properties":{"address":"158 AVENUE","borough":"Queens","bbl":"4141630014","zipcode":"11414","agency":"Department of Citywide Administrative Services","agencyshort":"DCAS","sqft":"5000","acres":"0.114784","vacant":"TRUE"}},{"type":"Feature","geometry":{"type":"Point","coordinates":[-74.15059329,40.55544957]},"properties":{"address":"SCHLEY AVE","borough":"Staten Island","bbl":"5046160037","zipcode":"10308","agency":"Department of Citywide Administrative Services","agencyshort":"DCAS","sqft":"5000","acres":"0.114784","vacant":"TRUE"}},{"type":"Feature","geometry":{"type":"Point","coordinates":[-73.91519559,40.6762777]},"properties":{"address":"2156 ATLANTIC AVENUE","borough":"Brooklyn","bbl":"3014330023","zipcode":"11233","agency":"Housing Preservation and Development","agencyshort":"HPD","sqft":"5000","acres":"0.114784","vacant":"TRUE"}},{"type":"Feature","geometry":{"type":"Point","coordinates":[-73.95033485,40.69125725]},"properties":{"address":"652 DE KALB AVENUE","borough":"Brooklyn","bbl":"3017790024","zipcode":"11216","agency":"Housing Preservation and Development","agencyshort":"HPD","sqft":"5000","acres":"0.114784","vacant":"TRUE"}},{"type":"Feature","geometry":{"type":"Point","coordinates":[-73.88787561,40.67198619]},"properties":{"address":"583 BELMONT AVENUE","borough":"Brooklyn","bbl":"3040120032","zipcode":"11207","agency":"Housing Preservation and Development","agencyshort":"HPD","sqft":"5000","acres":"0.114784","vacant":"TRUE"}},{"type":"Feature","geometry":{"type":"Point","coordinates":[-73.89846404,40.66440397]},"properties":{"address":"        HINSDALE STREET","borough":"Brooklyn","bbl":"3038010003","zipcode":"11207","agency":"Housing Preservation and Development","agencyshort":"HPD","sqft":"5000","acres":"0.114784","vacant":"TRUE"}},{"type":"Feature","geometry":{"type":"Point","coordinates":[-73.89845,40.664278]},"properties":{"address":"443 HINSDALE STREET","borough":"Brooklyn","bbl":"3038010001","zipcode":"11207","agency":"Housing Preservation and Development","agencyshort":"HPD","sqft":"5000","acres":"0.114784","vacant":"TRUE"}},{"type":"Feature","geometry":{"type":"Point","coordinates":[-73.93060514,40.69951977]},"properties":{"address":"120 JEFFERSON STREET","borough":"Brooklyn","bbl":"3031720012","zipcode":"11206","agency":"Housing Preservation and Development","agencyshort":"HPD","sqft":"5000","acres":"0.114784","vacant":"TRUE"}},{"type":"Feature","geometry":{"type":"Point","coordinates":[-73.89811072,40.66445581]},"properties":{"address":"464 WILLIAMS AVENUE","borough":"Brooklyn","bbl":"3038010047","zipcode":"11207","agency":"Housing Preservation and Development","agencyshort":"HPD","sqft":"5000","acres":"0.114784","vacant":"TRUE"}},{"type":"Feature","geometry":{"type":"Point","coordinates":[-73.8880595,40.67195892]},"properties":{"address":"581 BELMONT AVENUE","borough":"Brooklyn","bbl":"3040120034","zipcode":"11207","agency":"Housing Preservation and Development","agencyshort":"HPD","sqft":"5000","acres":"0.114784","vacant":"TRUE"}},{"type":"Feature","geometry":{"type":"Point","coordinates":[-73.898096,40.664327]},"properties":{"address":"474 WILLIAMS AVENUE","borough":"Brooklyn","bbl":"3038010049","zipcode":"11207","agency":"Housing Preservation and Development","agencyshort":"HPD","sqft":"5000","acres":"0.114784","vacant":"TRUE"}},{"type":"Feature","geometry":{"type":"Point","coordinates":[-73.88951793,40.67073342]},"properties":{"address":"        VAN SICLEN AVENUE","borough":"Brooklyn","bbl":"3040260002","zipcode":"11207","agency":"Housing Preservation and Development","agencyshort":"HPD","sqft":"5000","acres":"0.114784","vacant":"TRUE"}},{"type":"Feature","geometry":{"type":"Point","coordinates":[-73.89571963,40.66988833]},"properties":{"address":"306 PENNSYLVANIA AVENUE","borough":"Brooklyn","bbl":"3037540031","zipcode":"11207","agency":"Housing Preservation and Development","agencyshort":"HPD","sqft":"5000","acres":"0.114784","vacant":"TRUE"}},{"type":"Feature","geometry":{"type":"Point","coordinates":[-73.94683273,40.701189]},"properties":{"address":"43 BARTLETT STREET","borough":"Brooklyn","bbl":"3022690045","zipcode":"11206","agency":"Housing Preservation and Development","agencyshort":"HPD","sqft":"5000","acres":"0.114784","vacant":"TRUE"}},{"type":"Feature","geometry":{"type":"Point","coordinates":[-73.88902613,40.82548194]},"properties":{"address":"0 EAST 165 STREET","borough":"Bronx","bbl":"2027500030","zipcode":"10459","agency":"Housing Preservation and Development","agencyshort":"HPD","sqft":"5000","acres":"0.114784","vacant":"TRUE"}},{"type":"Feature","geometry":{"type":"Point","coordinates":[-73.92114151,40.84922542]},"properties":{"address":"1647-49 POPHAM AVENUE","borough":"Bronx","bbl":"2028770278","zipcode":"10453","agency":"Housing Preservation and Development","agencyshort":"HPD","sqft":"5000","acres":"0.114784","vacant":"TRUE"}},{"type":"Feature","geometry":{"type":"Point","coordinates":[-73.91501535,40.67626659]},